COD_MUNICIPIO,UF,MUNICIPIO,MUNNOMEX,CAPITAL,ALTITUDE,AREA,LATITUDE,LONGITUDE,QDE_POP_TOTAL,QDE_POP_URBANA,QDE_POP_RURAL,QDE_POP_HOMEM,QDE_POP_MULHER
1100015,RO,Alta Floresta D'Oeste,ALTA FLORESTA D'OESTE,N,350,7067,-11.92900,-61.99600,24392,13970,10423,12658,11735
1100023,RO,Ariquemes,ARIQUEMES,N,142,4427,-9.91300,-63.04100,90353,76529,13825,45547,44807
1100031,RO,Cabixi,CABIXI,N,230,1314,-13.49200,-60.54500,6313,2694,3620,3266,3048
1100049,RO,Cacoal,CACOAL,N,200,3793,-11.43800,-61.44800,78574,61925,16650,39122,39453
1100056,RO,Cerejeiras,CEREJEIRAS,N,277,2783,-13.18900,-60.81200,17029,14419,2611,8551,8479
1100064,RO,Colorado do Oeste,COLORADO DO OESTE,N,460,1451,-13.11700,-60.54200,18591,13657,4935,9331,9261
1100072,RO,Corumbiara,CORUMBIARA,N,340,3060,-12.96200,-60.88700,8783,2591,6193,4712,4072
1100080,RO,Costa Marques,COSTA MARQUES,N,140,12722,-12.44500,-64.22700,13678,7497,6182,7202,6477
1100098,RO,Espigão D'Oeste,ESPIGAO D'OESTE,N,270,4518,-11.52500,-61.01300,28729,20611,8119,14606,14124
1100106,RO,Guajará-Mirim,GUAJARA-MIRIM,N,128,24856,-10.78300,-65.33900,41656,35208,6449,20949,20708
1100114,RO,Jaru,JARU,N,124,2944,-10.43900,-62.46600,52005,35119,16887,26003,26003
1100122,RO,Ji-Paraná,JI-PARANA,N,170,6897,-10.88200,-61.94400,116610,104856,11755,57827,58784
1100130,RO,Machadinho D'Oeste,MACHADINHO D'OESTE,N,102,8509,-9.44400,-61.98100,31135,16172,14964,16536,14600
1100148,RO,Nova Brasilândia D'Oeste,NOVA BRASILANDIA D'OESTE,N,320,1155,-11.72500,-62.33100,19874,8381,11494,10345,9530
1100155,RO,Ouro Preto do Oeste,OURO PRETO DO OESTE,N,280,1970,-10.71600,-62.24800,37928,28181,9748,18699,19230
1100189,RO,Pimenta Bueno,PIMENTA BUENO,N,195,6241,-11.67300,-61.19300,33822,29419,4404,17040,16783
1100205,RO,Porto Velho,PORTO VELHO,S,85,34082,-8.76200,-63.90400,428527,390731,37797,217607,210921
1100254,RO,Presidente Médici,PRESIDENTE MEDICI,N,185,1758,-11.17600,-61.90100,22319,13303,9017,11310,11010
1100262,RO,Rio Crespo,RIO CRESPO,N,0,1718,-9.70500,-62.90000,3316,1065,2252,1768,1549
1100288,RO,Rolim de Moura,ROLIM DE MOURA,N,290,1458,-11.73300,-61.77800,50648,41431,9218,25173,25476
1100296,RO,Santa Luzia D'Oeste,SANTA LUZIA D'OESTE,N,260,1198,-11.90200,-61.77900,8886,4525,4362,4596,4291
1100304,RO,Vilhena,VILHENA,N,600,11519,-12.74100,-60.14600,76202,72217,3986,37781,38422
1100320,RO,São Miguel do Guaporé,SAO MIGUEL DO GUAPORE,N,205,8008,-11.68100,-62.68400,21828,8470,13359,11329,10500
1100338,RO,Nova Mamoré,NOVA MAMORE,N,134,10072,-10.41100,-65.33100,22546,13068,9479,11736,10811
1100346,RO,Alvorada D'Oeste,ALVORADA D'OESTE,N,224,3029,-11.40800,-62.38900,16853,8825,8029,8678,8176
1100379,RO,Alto Alegre dos Parecis,ALTO ALEGRE DOS PARECIS,N,405,3959,-12.12800,-61.85100,12816,3657,9160,6739,6078
1100403,RO,Alto Paraíso,ALTO PARAISO,N,0,2652,-9.71300,-63.32100,17135,8203,8933,9022,8114
1100452,RO,Buritis,BURITIS,N,200,3266,-10.21200,-63.82900,32383,18122,14262,16743,15641
1100502,RO,Novo Horizonte do Oeste,NOVO HORIZONTE DO OESTE,N,0,843,-11.71000,-62.00000,10240,1733,8508,5337,4904
1100601,RO,Cacaulândia,CACAULANDIA,N,205,1962,-10.34000,-62.89600,5736,2069,3668,2965,2772
1100700,RO,Campo Novo de Rondônia,CAMPO NOVO DE RONDONIA,N,0,3442,-10.57100,-63.62700,12665,3372,9294,6769,5897
1100809,RO,Candeias do Jamari,CANDEIAS DO JAMARI,N,0,6844,-8.79100,-63.70100,19779,12887,6893,10321,9459
1100908,RO,Castanheiras,CASTANHEIRAS,N,190,893,-11.42700,-61.95000,3575,836,2740,1829,1747
1100924,RO,Chupinguaia,CHUPINGUAIA,N,360,5127,-12.55200,-60.90000,8301,3664,4638,4416,3886
1100940,RO,Cujubim,CUJUBIM,N,95,3864,-9.36300,-62.58500,15854,11043,4812,8457,7398
1101005,RO,Governador Jorge Teixeira,GOVERNADOR JORGE TEIXEIRA,N,190,5067,-10.61000,-62.73700,10512,2361,8152,5471,5042
1101104,RO,Itapuã do Oeste,ITAPUA DO OESTE,N,0,4081,-9.20500,-63.18000,8566,5222,3345,4565,4002
1101203,RO,Ministro Andreazza,MINISTRO ANDREAZZA,N,400,798,-11.19600,-61.51700,10352,3074,7279,5305,5048
1101302,RO,Mirante da Serra,MIRANTE DA SERRA,N,230,1192,-11.03000,-62.67500,11878,6444,5435,6050,5829
1101401,RO,Monte Negro,MONTE NEGRO,N,0,1931,-10.24600,-63.29000,14091,7390,6702,7408,6684
1101435,RO,Nova União,NOVA UNIAO,N,250,807,-10.90400,-62.56100,7493,1542,5952,4000,3494
1101450,RO,Parecis,PARECIS,N,355,2549,-12.17500,-61.60300,4810,1774,3037,2595,2216
1101468,RO,Pimenteiras do Oeste,PIMENTEIRAS DO OESTE,N,185,6015,-13.48300,-61.04700,2315,1293,1023,1218,1098
1101476,RO,Primavera de Rondônia,PRIMAVERA DE RONDONIA,N,210,606,-11.82800,-61.32100,3524,1285,2240,1857,1668
1101484,RO,São Felipe D'Oeste,SAO FELIPE D'OESTE,N,290,542,-11.90300,-61.50200,6018,1444,4575,3087,2932
1101492,RO,São Francisco do Guaporé,SAO FRANCISCO DO GUAPORE,N,185,4747,-12.06200,-63.56900,16035,8228,7808,8416,7620
1101500,RO,Seringueiras,SERINGUEIRAS,N,0,2251,-11.79800,-63.03100,11629,4397,7233,6087,5543
1101559,RO,Teixeirópolis,TEIXEIROPOLIS,N,260,460,-10.91800,-62.24900,4888,1717,3172,2540,2349
1101609,RO,Theobroma,THEOBROMA,N,205,2197,-10.24400,-62.35500,10649,1978,8672,5653,4997
1101708,RO,Urupá,URUPA,N,200,832,-11.12500,-62.37600,12974,5137,7838,6731,6244
1101757,RO,Vale do Anari,VALE DO ANARI,N,140,3135,-9.86300,-62.18600,9384,3193,6192,4980,4405
1101807,RO,Vale do Paraíso,VALE DO PARAISO,N,204,965,-10.44900,-62.13400,8210,2276,5935,4244,3967
1200013,AC,Acrelândia,ACRELANDIA,N,25,1575,-9.82800,-66.88300,12538,5916,6623,6593,5946
1200054,AC,Assis Brasil,ASSIS BRASIL,N,239,2876,-10.94100,-69.56700,6072,3701,2372,3092,2981
1200104,AC,Brasiléia,BRASILEIA,N,172,4336,-11.01000,-68.74800,21398,14258,7141,11038,10361
1200138,AC,Bujari,BUJARI,N,50,3468,-9.83100,-67.95200,8471,3694,4778,4570,3902
1200179,AC,Capixaba,CAPIXABA,N,40,1713,-10.57300,-67.67600,8798,3930,4869,4656,4143
1200203,AC,Cruzeiro do Sul,CRUZEIRO DO SUL,N,182,7925,-7.63100,-72.67000,78507,55324,23184,39223,39285
1200252,AC,Epitaciolândia,EPITACIOLANDIA,N,0,1659,-11.02900,-68.74100,15100,10619,4482,7626,7475
1200302,AC,Feijó,FEIJO,N,153,24202,-8.16400,-70.35400,32412,16638,15775,16715,15698
1200328,AC,Jordão,JORDAO,N,278,5429,-9.43400,-71.88400,6577,2272,4306,3413,3165
1200336,AC,Mâncio Lima,MANCIO LIMA,N,195,4672,-7.61400,-72.89600,15206,8750,6457,7836,7371
1200344,AC,Manoel Urbano,MANOEL URBANO,N,162,9387,-8.83900,-69.26000,7981,5278,2704,4255,3727
1200351,AC,Marechal Thaumaturgo,MARECHAL THAUMATURGO,N,190,7744,-8.94100,-72.79200,14227,3970,10258,7464,6764
1200385,AC,Plácido de Castro,PLACIDO DE CASTRO,N,136,2047,-10.33500,-67.18400,17209,10383,6827,8999,8211
1200393,AC,Porto Walter,PORTO WALTER,N,195,6136,-8.26900,-72.74400,9176,3323,5854,4794,4383
1200401,AC,Rio Branco,RIO BRANCO,S,153,9223,-9.97500,-67.81000,336038,308551,27488,163584,172455
1200427,AC,Rodrigues Alves,RODRIGUES ALVES,N,0,3305,-7.74200,-72.64700,14389,4316,10074,7480,6910
1200435,AC,Santa Rosa do Purus,SANTA ROSA DO PURUS,N,25,5981,-9.43300,-70.49300,4691,1892,2800,2407,2285
1200450,AC,Senador Guiomard,SENADOR GUIOMARD,N,201,1837,-10.15100,-67.73600,20179,12703,7477,10328,9852
1200500,AC,Sena Madureira,SENA MADUREIRA,N,150,25278,-9.06600,-68.65700,38029,25111,12919,19741,18289
1200609,AC,Tarauacá,TARAUACA,N,168,15553,-8.16100,-70.76600,35590,19351,16240,18354,17237
1200708,AC,Xapuri,XAPURI,N,150,5251,-10.65200,-68.50400,16091,10331,5761,8318,7774
1200807,AC,Porto Acre,PORTO ACRE,N,145,2985,-9.58800,-67.53300,14880,1983,12898,7845,7036
1300029,AM,Alvarães,ALVARAES,N,75,5912,-3.22100,-64.80400,14088,7887,6202,7416,6673
1300060,AM,Amaturá,AMATURA,N,58,4759,-3.36400,-68.19800,9467,4960,4508,4903,4565
1300086,AM,Anamã,ANAMA,N,28,2454,-3.58000,-61.40400,10214,4175,6040,5447,4768
1300102,AM,Anori,ANORI,N,120,5795,-3.77300,-61.64400,16317,10001,6317,8511,7807
1300144,AM,Apuí,APUI,N,135,54240,-7.19700,-59.89100,18007,10596,7412,9551,8457
1300201,AM,Atalaia do Norte,ATALAIA DO NORTE,N,65,76355,-4.37200,-70.19200,15153,6894,8260,7853,7301
1300300,AM,Autazes,AUTAZES,N,36,7599,-3.58000,-59.13100,32135,13892,18244,16990,15146
1300409,AM,Barcelos,BARCELOS,N,47,122476,-0.97500,-62.92400,25718,11157,14562,13816,11903
1300508,AM,Barreirinha,BARREIRINHA,N,19,5751,-2.79300,-57.07000,27355,12420,14936,14313,13043
1300607,AM,Benjamin Constant,BENJAMIN CONSTANT,N,65,8793,-4.38300,-70.03100,33411,20137,13275,17261,16151
1300631,AM,Beruri,BERURI,N,35,17251,-3.89800,-61.37300,15486,7779,7708,8146,7341
1300680,AM,Boa Vista do Ramos,BOA VISTA DO RAMOS,N,32,2587,-2.97000,-57.59000,14979,7550,7430,7945,7035
1300706,AM,Boca do Acre,BOCA DO ACRE,N,116,22349,-8.75200,-67.39800,30632,19348,11285,15948,14685
1300805,AM,Borba,BORBA,N,45,44251,-4.38800,-59.59400,34961,14436,20526,18236,16726
1300839,AM,Caapiranga,CAAPIRANGA,N,32,9457,-3.32800,-61.20900,10975,5140,5836,5813,5163
1300904,AM,Canutama,CANUTAMA,N,55,29820,-6.53400,-64.38300,12738,6683,6056,6873,5866
1301001,AM,Carauari,CARAUARI,N,87,25767,-4.88300,-66.89600,25774,19743,6032,13259,12516
1301100,AM,Careiro,CAREIRO,N,27,6092,-3.76800,-60.36900,32734,9438,23297,16989,15746
1301159,AM,Careiro da Várzea,CAREIRO DA VARZEA,N,25,2631,-3.22100,-59.82600,23930,1001,22930,12688,11243
1301209,AM,Coari,COARI,N,10,57922,-4.08500,-63.14100,75965,49651,26315,39480,36486
1301308,AM,Codajás,CODAJAS,N,47,18712,-3.83700,-62.05700,23206,15806,7401,12107,11100
1301407,AM,Eirunepé,EIRUNEPE,N,124,15832,-6.66000,-69.87400,30665,22165,8501,15781,14885
1301506,AM,Envira,ENVIRA,N,135,13369,-7.43300,-70.02300,16338,10553,5786,8392,7947
1301605,AM,Fonte Boa,FONTE BOA,N,62,12111,-2.51400,-66.09200,22817,15114,7704,11824,10994
1301654,AM,Guajará,GUAJARA,N,0,8904,-7.54600,-72.58400,13974,7428,6547,7266,6709
1301704,AM,Humaitá,HUMAITA,N,58,33072,-7.50600,-63.02100,44227,30499,13729,23206,21022
1301803,AM,Ipixuna,IPIXUNA,N,190,13566,-7.05100,-71.69500,22254,9499,12756,11354,10901
1301852,AM,Iranduba,IRANDUBA,N,60,2215,-3.28500,-60.18600,40781,28979,11803,20995,19787
1301902,AM,Itacoatiara,ITACOATIARA,N,26,8892,-3.14300,-58.44400,86839,58157,28683,44427,42413
1301951,AM,Itamarati,ITAMARATI,N,60,25276,-6.42500,-68.25300,8038,4473,3566,4237,3802
1302009,AM,Itapiranga,ITAPIRANGA,N,43,4231,-2.74900,-58.02200,8211,6452,1760,4300,3912
1302108,AM,Japurá,JAPURA,N,50,55791,-1.82600,-66.59900,7326,3299,4028,3836,3491
1302207,AM,Juruá,JURUA,N,55,19400,-3.48100,-66.06900,10802,5687,5116,5548,5255
1302306,AM,Jutaí,JUTAI,N,48,69552,-2.74700,-66.76700,17992,10553,7440,9432,8561
1302405,AM,Lábrea,LABREA,N,75,68229,-7.25900,-64.79800,37701,24208,13494,19639,18063
1302504,AM,Manacapuru,MANACAPURU,N,60,7329,-3.30000,-60.62100,85141,60178,24964,43465,41677
1302553,AM,Manaquiri,MANAQUIRI,N,48,3976,-3.42800,-60.45900,22801,7062,15740,11745,11057
1302603,AM,Manaus,MANAUS,S,92,11401,-3.10200,-60.02500,1802014,1792824,9191,879744,922271
1302702,AM,Manicoré,MANICORE,N,45,48282,-5.80900,-61.30000,47017,20349,26669,24684,22334
1302801,AM,Maraã,MARAA,N,50,16910,-1.85600,-65.58100,17528,8754,8775,9408,8121
1302900,AM,Maués,MAUES,N,25,39988,-3.38400,-57.71900,52236,25831,26406,27283,24954
1303007,AM,Nhamundá,NHAMUNDA,N,25,14106,-2.18600,-56.71300,18278,7010,11269,9496,8783
1303106,AM,Nova Olinda do Norte,NOVA OLINDA DO NORTE,N,32,5609,-3.88800,-59.09400,30696,13626,17071,15748,14949
1303205,AM,Novo Airão,NOVO AIRAO,N,45,37771,-2.62100,-60.94400,14723,9500,5224,7608,7116
1303304,AM,Novo Aripuanã,NOVO ARIPUANA,N,20,41191,-5.12100,-60.38000,21451,14075,7377,11430,10022
1303403,AM,Parintins,PARINTINS,N,27,5952,-2.62800,-56.73600,102033,69893,32141,52303,49731
1303502,AM,Pauini,PAUINI,N,101,43263,-7.71400,-66.97600,18166,9265,8902,9490,8677
1303536,AM,Presidente Figueiredo,PRESIDENTE FIGUEIREDO,N,122,25422,-2.03400,-60.02500,27175,13001,14175,14352,12824
1303569,AM,Rio Preto da Eva,RIO PRETO DA EVA,N,47,5813,-2.69900,-59.70000,25719,12207,13513,13405,12315
1303601,AM,Santa Isabel do Rio Negro,SANTA ISABEL DO RIO NEGRO,N,60,62846,-0.41400,-65.01900,18146,6856,11291,9322,8825
1303700,AM,Santo Antônio do Içá,SANTO ANTONIO DO ICA,N,91,12308,-3.10200,-67.94000,24481,12949,11533,12594,11888
1303809,AM,São Gabriel da Cachoeira,SAO GABRIEL DA CACHOEIRA,N,132,109185,-0.13000,-67.08900,37896,19055,18842,19464,18433
1303908,AM,São Paulo de Olivença,SAO PAULO DE OLIVENCA,N,102,19746,-3.37800,-68.87300,31422,14263,17160,16268,15155
1303957,AM,São Sebastião do Uatumã,SAO SEBASTIAO DO UATUMA,N,24,10741,-2.57200,-57.87100,10705,5904,4802,5681,5025
1304005,AM,Silves,SILVES,N,46,3749,-2.83900,-58.20900,8444,4029,4416,4499,3946
1304062,AM,Tabatinga,TABATINGA,N,60,3225,-4.25300,-69.93800,52272,36356,15917,26361,25912
1304104,AM,Tapauá,TAPAUA,N,54,89324,-5.62800,-63.18300,19077,10619,8459,10075,9003
1304203,AM,Tefé,TEFE,N,75,23704,-3.35400,-64.71100,61453,50072,11382,31520,29934
1304237,AM,Tonantins,TONANTINS,N,55,6433,-2.87300,-67.80200,17079,8899,8181,8777,8303
1304260,AM,Uarini,UARINI,N,60,10246,-2.99000,-65.10800,11891,6795,5097,6332,5560
1304302,AM,Urucará,URUCARA,N,26,27905,-2.53600,-57.76000,17094,9886,7209,8855,8240
1304401,AM,Urucurituba,URUCURITUBA,N,40,2907,-3.13100,-58.15500,17837,10448,7390,9529,8309
1400027,RR,Amajari,AMAJARI,N,100,28472,3.65200,-61.37100,9327,1220,8108,4992,4336
1400050,RR,Alto Alegre,ALTO ALEGRE,N,72,25567,2.98000,-61.29200,16448,4780,11669,8677,7772
1400100,RR,Boa Vista,BOA VISTA,S,85,5687,2.82000,-60.67300,284313,277803,6511,140792,143522
1400159,RR,Bonfim,BONFIM,N,92,8095,3.36000,-59.83300,10943,3711,7233,5879,5065
1400175,RR,Cantá,CANTA,N,100,7665,2.61000,-60.59700,13902,2258,11645,7538,6365
1400209,RR,Caracaraí,CARACARAI,N,52,47411,1.81600,-61.12800,18398,10911,7488,9733,8666
1400233,RR,Caroebe,CAROEBE,N,135,12066,0.88400,-59.69600,8114,3325,4790,4310,3805
1400282,RR,Iracema,IRACEMA,N,80,14119,2.18200,-61.04100,8696,4079,4618,4601,4096
1400308,RR,Mucajaí,MUCAJAI,N,70,12751,2.43000,-60.90000,14792,8935,5858,7865,6928
1400407,RR,Normandia,NORMANDIA,N,100,6967,3.88100,-59.62300,8940,2311,6630,4679,4262
1400456,RR,Pacaraima,PACARAIMA,N,920,8028,4.43100,-61.14600,10433,4515,5919,5409,5025
1400472,RR,Rorainópolis,RORAINOPOLIS,N,98,33594,0.94600,-60.41800,24279,10674,13606,12924,11356
1400506,RR,São João da Baliza,SAO JOAO DA BALIZA,N,255,4284,0.95100,-59.91100,6769,4756,2014,3552,3218
1400605,RR,São Luiz,SAO LUIZ,N,52,1527,1.00500,-60.15900,6750,4455,2295,3569,3182
1400704,RR,Uiramutã,UIRAMUTA,N,0,8066,4.59600,-60.16800,8375,1139,7237,4340,4036
1500107,PA,Abaetetuba,ABAETETUBA,N,10,1611,-1.71800,-48.88300,141100,82996,58105,71637,69464
1500131,PA,Abel Figueiredo,ABEL FIGUEIREDO,N,0,614,-4.95400,-48.39300,6780,6035,746,3534,3247
1500206,PA,Acará,ACARA,N,25,4344,-1.96100,-48.19700,53569,12621,40949,28114,25456
1500305,PA,Afuá,AFUA,N,8,8373,-0.15700,-50.38700,35042,9479,25564,18454,16589
1500347,PA,Água Azul do Norte,AGUA AZUL DO NORTE,N,0,7577,-6.79100,-50.46700,25057,4877,20181,13619,11439
1500404,PA,Alenquer,ALENQUER,N,52,22282,-1.94200,-54.73800,52626,27724,24903,27029,25598
1500503,PA,Almeirim,ALMEIRIM,N,65,72960,-1.52300,-52.58200,33614,19964,13651,17470,16145
1500602,PA,Altamira,ALTAMIRA,N,109,159696,-3.20300,-52.20600,99075,84095,14981,49815,49261
1500701,PA,Anajás,ANAJAS,N,10,6922,-0.98700,-49.94000,24759,9496,15264,12957,11803
1500800,PA,Ananindeua,ANANINDEUA,N,17,185,-1.36600,-48.37200,471980,470801,1180,226645,245336
1500859,PA,Anapu,ANAPU,N,96,11895,-3.47200,-51.19800,20543,9834,10710,10993,9551
1500909,PA,Augusto Corrêa,AUGUSTO CORREA,N,20,1091,-1.02200,-46.64500,40497,18240,22258,20990,19508
1500958,PA,Aurora do Pará,AURORA DO PARA,N,50,1812,-2.13400,-47.56300,26546,8169,18378,13621,12926
1501006,PA,Aveiro,AVEIRO,N,28,17074,-3.60600,-55.33200,15849,3180,12670,8367,7483
1501105,PA,Bagre,BAGRE,N,31,4397,-1.90000,-50.16400,23864,10661,13204,12135,11730
1501204,PA,Baião,BAIAO,N,30,3758,-2.79100,-49.67200,36882,18556,18327,19445,17438
1501253,PA,Bannach,BANNACH,N,420,2957,-7.34800,-50.39600,3431,1283,2149,1847,1585
1501303,PA,Barcarena,BARCARENA,N,15,1310,-1.50600,-48.62600,99859,36299,63561,50349,49511
1501402,PA,Belém,BELEM,S,10,1065,-1.45600,-48.50400,1393399,1381416,11984,658939,734461
1501451,PA,Belterra,BELTERRA,N,152,4398,-2.63600,-54.93700,16318,6852,9467,8481,7838
1501501,PA,Benevides,BENEVIDES,N,28,188,-1.36100,-48.24500,51651,28915,22737,25816,25836
1501576,PA,Bom Jesus do Tocantins,BOM JESUS DO TOCANTINS,N,175,2816,-5.05100,-48.60900,15298,8159,7140,8052,7247
1501600,PA,Bonito,BONITO,N,49,587,-1.36300,-47.30700,13630,3828,9803,7114,6517
1501709,PA,Bragança,BRAGANCA,N,19,2090,-1.06300,-46.77300,113227,72624,40604,57293,55935
1501725,PA,Brasil Novo,BRASIL NOVO,N,0,6368,-3.26200,-52.66800,15690,6899,8792,8315,7376
1501758,PA,Brejo Grande do Araguaia,BREJO GRANDE DO ARAGUAIA,N,110,1188,-5.69900,-48.41300,7317,4309,3009,3832,3486
1501782,PA,Breu Branco,BREU BRANCO,N,0,3943,-4.00900,-49.46100,52493,29307,23187,27087,25407
1501808,PA,Breves,BREVES,N,40,9550,-1.68200,-50.48000,92860,46561,46300,47786,45075
1501907,PA,Bujaru,BUJARU,N,10,1005,-1.51500,-48.04500,25695,8100,17596,13336,12360
1501956,PA,Cachoeira do Piriá,CACHOEIRA DO PIRIA,N,0,2418,-1.67100,-46.52900,26484,5533,20952,13719,12766
1502004,PA,Cachoeira do Arari,CACHOEIRA DO ARARI,N,20,3102,-1.01100,-48.96300,20443,7356,13088,10545,9899
1502103,PA,Cametá,CAMETA,N,150,3081,-2.24400,-49.49600,120896,52844,68053,62020,58877
1502152,PA,Canaã dos Carajás,CANAA DOS CARAJAS,N,210,3147,-6.49700,-49.87800,26716,20727,5990,13586,13131
1502202,PA,Capanema,CAPANEMA,N,24,614,-1.19600,-47.18100,63639,50734,12906,31495,32145
1502301,PA,Capitão Poço,CAPITAO POCO,N,73,2900,-1.74500,-47.06500,51893,21443,30451,26622,25272
1502400,PA,Castanhal,CASTANHAL,N,41,1029,-1.29700,-47.92200,173149,153376,19774,84480,88670
1502509,PA,Chaves,CHAVES,N,6,13085,-0.16000,-49.98800,21005,2511,18495,11181,9825
1502608,PA,Colares,COLARES,N,15,610,-0.93700,-48.28200,11381,3662,7720,5880,5502
1502707,PA,Conceição do Araguaia,CONCEICAO DO ARAGUAIA,N,165,5829,-8.25800,-49.26500,45557,32464,13094,23307,22251
1502756,PA,Concórdia do Pará,CONCORDIA DO PARA,N,440,691,-1.99100,-47.94900,28216,15088,13129,14591,13626
1502764,PA,Cumaru do Norte,CUMARU DO NORTE,N,299,17085,-7.82500,-50.77300,10466,2711,7756,6081,4386
1502772,PA,Curionópolis,CURIONOPOLIS,N,180,2369,-6.09100,-49.54100,18288,12530,5759,9666,8623
1502806,PA,Curralinho,CURRALINHO,N,15,3617,-1.81400,-49.79500,28549,10932,17618,15060,13490
1502855,PA,Curuá,CURUA,N,0,1431,-1.88800,-55.11700,12254,5782,6473,6456,5799
1502905,PA,Curuçá,CURUCA,N,37,673,-0.73400,-47.85500,34294,12175,22120,17569,16726
1502939,PA,Dom Eliseu,DOM ELISEU,N,180,5268,-4.28500,-47.50500,51319,32516,18804,26625,24695
1502954,PA,Eldorado dos Carajás,ELDORADO DOS CARAJAS,N,140,2957,-6.10400,-49.35500,31786,16580,15207,16815,14972
1503002,PA,Faro,FARO,N,31,11766,-2.17100,-56.74500,8177,6128,2050,4240,3938
1503044,PA,Floresta do Araguaia,FLORESTA DO ARAGUAIA,N,190,3444,-7.55400,-49.71300,17768,8714,9055,9551,8218
1503077,PA,Garrafão do Norte,GARRAFAO DO NORTE,N,56,1604,-1.93400,-47.05300,25034,8607,16428,13108,11927
1503093,PA,Goianésia do Pará,GOIANESIA DO PARA,N,103,7021,-3.84300,-49.09700,30436,21084,9353,15751,14686
1503101,PA,Gurupá,GURUPA,N,20,8540,-1.40500,-51.64000,29062,9579,19484,15400,13663
1503200,PA,Igarapé-Açu,IGARAPE-ACU,N,50,786,-1.12700,-47.61800,35887,21206,14682,18116,17772
1503309,PA,Igarapé-Miri,IGARAPE-MIRI,N,17,1997,-1.97500,-48.96000,58077,26205,31873,29672,28406
1503408,PA,Inhangapi,INHANGAPI,N,35,471,-1.43000,-47.91700,10037,2772,7266,5171,4867
1503457,PA,Ipixuna do Pará,IPIXUNA DO PARA,N,50,5217,-2.55800,-47.49400,51309,12227,39083,26907,24403
1503507,PA,Irituia,IRITUIA,N,25,1380,-1.76900,-47.43900,31364,6524,24841,16263,15102
1503606,PA,Itaituba,ITAITUBA,N,15,62041,-4.27600,-55.98400,97493,70683,26811,49683,47811
1503705,PA,Itupiranga,ITUPIRANGA,N,89,7880,-5.13500,-49.32700,51220,20488,30732,27024,24197
1503754,PA,Jacareacanga,JACAREACANGA,N,70,53303,-6.22400,-57.75400,14103,4931,9173,8038,6066
1503804,PA,Jacundá,JACUNDA,N,108,2008,-4.45100,-49.11600,51360,45685,5676,25768,25593
1503903,PA,Juruti,JURUTI,N,36,8304,-2.15200,-56.09200,47086,15854,31233,24579,22508
1504000,PA,Limoeiro do Ajuru,LIMOEIRO DO AJURU,N,28,1490,-1.89500,-49.38100,25021,6198,18824,13117,11905
1504059,PA,Mãe do Rio,MAE DO RIO,N,25,469,-2.06000,-47.55300,27904,23052,4853,13740,14165
1504109,PA,Magalhães Barata,MAGALHAES BARATA,N,50,325,-0.79500,-47.59800,8115,3796,4320,4258,3858
1504208,PA,Marabá,MARABA,N,84,15092,-5.36900,-49.11800,233669,186281,47389,118190,115480
1504307,PA,Maracanã,MARACANA,N,45,781,-0.76500,-47.45000,28376,11657,16720,14699,13678
1504406,PA,Marapanim,MARAPANIM,N,40,792,-0.71400,-47.69400,26605,11704,14902,13886,12720
1504422,PA,Marituba,MARITUBA,N,18,103,-1.35500,-48.34200,108246,107121,1126,53885,54362
1504455,PA,Medicilândia,MEDICILANDIA,N,151,8273,-3.44600,-52.88900,27328,9560,17769,14889,12440
1504505,PA,Melgaço,MELGACO,N,12,6774,-1.80400,-50.71200,24808,5503,19306,13228,11581
1504604,PA,Mocajuba,MOCAJUBA,N,30,871,-2.58400,-49.50700,26731,18279,8453,13748,12984
1504703,PA,Moju,MOJU,N,16,9094,-1.88400,-48.76900,70018,25165,44854,36669,33350
1504802,PA,Monte Alegre,MONTE ALEGRE,N,38,21703,-2.00800,-54.06900,55462,24565,30898,28508,26955
1504901,PA,Muaná,MUANA,N,22,3766,-1.52800,-49.21700,34204,14520,19685,17906,16299
1504950,PA,Nova Esperança do Piriá,NOVA ESPERANCA DO PIRIA,N,0,2810,-2.26900,-46.96600,20158,7965,12194,10644,9515
1504976,PA,Nova Ipixuna,NOVA IPIXUNA,N,118,1600,-4.92100,-49.07700,14645,7727,6919,7732,6914
1505007,PA,Nova Timboteua,NOVA TIMBOTEUA,N,51,490,-1.20600,-47.38600,13670,5520,8151,7083,6588
1505031,PA,Novo Progresso,NOVO PROGRESSO,N,240,38162,-7.14700,-55.38200,25124,17718,7407,13434,11691
1505064,PA,Novo Repartimento,NOVO REPARTIMENTO,N,0,15399,-4.33100,-49.79600,62050,27948,34103,32750,29301
1505106,PA,Óbidos,OBIDOS,N,45,28021,-1.91800,-55.51800,49333,25466,23868,25565,23769
1505205,PA,Oeiras do Pará,OEIRAS DO PARA,N,2,3852,-2.00300,-49.85400,28595,11433,17163,15019,13577
1505304,PA,Oriximiná,ORIXIMINA,N,46,107603,-1.76600,-55.86600,62794,40145,22650,31755,31040
1505403,PA,Ourém,OUREM,N,40,562,-1.54800,-47.11900,16311,7438,8874,8443,7869
1505437,PA,Ourilândia do Norte,OURILANDIA DO NORTE,N,280,13826,-6.75500,-51.08400,27359,19912,7448,14271,13089
1505486,PA,Pacajá,PACAJA,N,105,11832,-3.83800,-50.63800,39979,13749,26231,21601,18379
1505494,PA,Palestina do Pará,PALESTINA DO PARA,N,0,984,-5.74200,-48.31700,7475,4547,2929,3879,3597
1505502,PA,Paragominas,PARAGOMINAS,N,90,19331,-2.99500,-47.35300,97819,76515,21305,49272,48548
1505536,PA,Parauapebas,PARAUAPEBAS,N,18,7008,-6.06800,-49.90200,153908,138687,15222,77893,76016
1505551,PA,Pau D'Arco,PAU D'ARCO,N,0,1671,-7.83300,-50.04400,6033,3641,2393,3179,2855
1505601,PA,Peixe-Boi,PEIXE-BOI,N,34,450,-1.19200,-47.31400,7854,4169,3686,4040,3815
1505635,PA,Piçarra,PICARRA,N,215,3312,-6.43800,-48.87200,12697,3581,9117,6777,5921
1505650,PA,Placas,PLACAS,N,95,7173,-3.86800,-54.22000,23934,4854,19081,12568,11367
1505700,PA,Ponta de Pedras,PONTA DE PEDRAS,N,10,3365,-1.39000,-48.87100,25999,12425,13575,13380,12620
1505809,PA,Portel,PORTEL,N,19,25385,-1.93600,-50.82100,52172,24850,27323,26817,25356
1505908,PA,Porto de Moz,PORTO DE MOZ,N,15,17423,-1.74800,-52.23800,33956,14585,19372,17613,16344
1506005,PA,Prainha,PRAINHA,N,70,12599,-1.80000,-53.48000,29349,8961,20389,15517,13833
1506104,PA,Primavera,PRIMAVERA,N,48,259,-0.94300,-47.11600,10268,6391,3878,5301,4968
1506112,PA,Quatipuru,QUATIPURU,N,29,324,-0.90100,-47.00600,12411,5314,7098,6462,5950
1506138,PA,Redenção,REDENCAO,N,227,3824,-8.02900,-50.03100,75556,70064,5493,38013,37544
1506161,PA,Rio Maria,RIO MARIA,N,205,4115,-7.31100,-50.04800,17697,13512,4186,9162,8536
1506187,PA,Rondon do Pará,RONDON DO PARA,N,195,8247,-4.77600,-48.06700,46964,34698,12267,24276,22689
1506195,PA,Rurópolis,RUROPOLIS,N,170,7021,-4.09600,-54.91000,40087,15274,24814,20874,19214
1506203,PA,Salinópolis,SALINOPOLIS,N,21,218,-0.62900,-47.35600,37421,33391,4031,19096,18326
1506302,PA,Salvaterra,SALVATERRA,N,5,1044,-0.75300,-48.51700,20183,12673,7511,10292,9892
1506351,PA,Santa Bárbara do Pará,SANTA BARBARA DO PARA,N,21,278,-1.22400,-48.29400,17141,5458,11684,8756,8386
1506401,PA,Santa Cruz do Arari,SANTA CRUZ DO ARARI,N,6,1075,-0.66400,-49.16300,8155,3995,4161,4142,4014
1506500,PA,Santa Isabel do Pará,SANTA ISABEL DO PARA,N,24,718,-1.29900,-48.16100,59466,43000,16467,31155,28312
1506559,PA,Santa Luzia do Pará,SANTA LUZIA DO PARA,N,0,1351,-1.51700,-46.94200,19424,8693,10732,9885,9540
1506583,PA,Santa Maria das Barreiras,SANTA MARIA DAS BARREIRAS,N,150,10330,-8.85500,-49.72200,17206,6358,10849,9498,7709
1506609,PA,Santa Maria do Pará,SANTA MARIA DO PARA,N,51,458,-1.35200,-47.57600,23026,13328,9699,11493,11534
1506708,PA,Santana do Araguaia,SANTANA DO ARAGUAIA,N,160,11591,-9.50500,-50.62500,56153,29666,26488,29790,26364
1506807,PA,Santarém,SANTAREM,N,51,22887,-2.44300,-54.70800,294580,215780,78801,145523,149058
1506906,PA,Santarém Novo,SANTAREM NOVO,N,30,230,-0.92900,-47.39700,6141,1810,4332,3212,2930
1507003,PA,Santo Antônio do Tauá,SANTO ANTONIO DO TAUA,N,17,538,-1.15200,-48.12900,26674,14871,11804,13434,13241
1507102,PA,São Caetano de Odivelas,SAO CAETANO DE ODIVELAS,N,5,749,-0.75000,-48.02000,16891,6958,9934,8806,8086
1507151,PA,São Domingos do Araguaia,SAO DOMINGOS DO ARAGUAIA,N,130,1392,-5.53800,-48.73300,23130,15255,7876,11901,11230
1507201,PA,São Domingos do Capim,SAO DOMINGOS DO CAPIM,N,20,1677,-1.67500,-47.77500,29846,6590,23257,15741,14106
1507300,PA,São Félix do Xingu,SAO FELIX DO XINGU,N,220,84212,-6.64500,-51.99500,91340,45113,46228,48694,42647
1507409,PA,São Francisco do Pará,SAO FRANCISCO DO PARA,N,46,480,-1.16900,-47.79500,15060,5113,9948,7776,7285
1507458,PA,São Geraldo do Araguaia,SAO GERALDO DO ARAGUAIA,N,145,3270,-6.40100,-48.55500,25587,13590,11998,13093,12495
1507466,PA,São João da Ponta,SAO JOAO DA PONTA,N,34,196,-0.85000,-47.92000,5265,1031,4235,2738,2528
1507474,PA,São João de Pirabas,SAO JOAO DE PIRABAS,N,35,702,-0.76900,-47.17400,20647,10487,10161,10760,9888
1507508,PA,São João do Araguaia,SAO JOAO DO ARAGUAIA,N,99,1280,-5.35800,-48.79100,13155,2587,10569,7149,6007
1507607,PA,São Miguel do Guamá,SAO MIGUEL DO GUAMA,N,10,1110,-1.62700,-47.48300,51567,31884,19684,26026,25542
1507706,PA,São Sebastião da Boa Vista,SAO SEBASTIAO DA BOA VISTA,N,2,1632,-1.71800,-49.54100,22904,9902,13003,11833,11072
1507755,PA,Sapucaia,SAPUCAIA,N,190,1298,-6.94700,-49.68200,5047,3325,1723,2711,2337
1507805,PA,Senador José Porfírio,SENADOR JOSE PORFIRIO,N,20,14374,-2.59100,-51.95400,13045,6471,6575,6995,6051
1507904,PA,Soure,SOURE,N,10,3513,-0.71700,-48.52300,23001,21017,1985,11473,11529
1507953,PA,Tailândia,TAILANDIA,N,460,4430,-2.94700,-48.95300,79297,58712,20586,40989,38309
1507961,PA,Terra Alta,TERRA ALTA,N,35,206,-1.03800,-47.90800,10262,4334,5929,5272,4991
1507979,PA,Terra Santa,TERRA SANTA,N,18,1901,-2.10400,-56.48700,16949,10336,6614,8777,8173
1508001,PA,Tomé-Açu,TOME-ACU,N,45,5145,-2.41900,-48.15200,56518,31566,24953,29322,27197
1508035,PA,Tracuateua,TRACUATEUA,N,20,852,-1.07200,-46.89700,27455,7257,20199,14329,13127
1508050,PA,Trairão,TRAIRAO,N,105,11991,-4.57400,-55.94400,16875,5679,11197,9147,7729
1508084,PA,Tucumã,TUCUMA,N,34,2513,-6.74800,-51.16100,33690,26909,6782,17489,16202
1508100,PA,Tucuruí,TUCURUI,N,42,2086,-3.76800,-49.67300,97128,92447,4682,48399,48730
1508126,PA,Ulianópolis,ULIANOPOLIS,N,130,5081,-3.75600,-47.50100,43341,28528,14814,22208,21134
1508159,PA,Uruará,URUARA,N,129,10791,-3.71800,-53.73700,44789,24428,20362,23636,21154
1508209,PA,Vigia,VIGIA,N,6,534,-0.85800,-48.14200,47889,32354,15536,24548,23342
1508308,PA,Viseu,VISEU,N,15,4904,-1.19700,-46.14000,56716,18399,38318,29816,26901
1508357,PA,Vitória do Xingu,VITORIA DO XINGU,N,0,2966,-2.88000,-52.01000,13431,5362,8070,7281,6151
1508407,PA,Xinguara,XINGUARA,N,279,3779,-7.09500,-49.94600,40573,31493,9081,20571,20003
1600055,AP,Serra do Navio,SERRA DO NAVIO,N,0,7757,0.89600,-52.00200,4380,2576,1805,2333,2048
1600105,AP,Amapá,AMAPA,N,8,9169,2.05300,-50.79300,8069,6959,1111,4212,3858
1600154,AP,Pedra Branca do Amapari,PEDRA BRANCA DO AMAPARI,N,0,9495,0.77800,-51.94400,10772,5964,4809,5867,4906
1600204,AP,Calçoene,CALCOENE,N,12,14269,2.49800,-50.94900,9000,7308,1693,4822,4179
1600212,AP,Cutias,CUTIAS,N,0,2115,0.98600,-50.80200,4696,2442,2255,2425,2272
1600238,AP,Ferreira Gomes,FERREIRA GOMES,N,50,5047,0.85800,-51.18000,5802,4176,1627,3047,2756
1600253,AP,Itaubal,ITAUBAL,N,27,1704,-0.59600,-50.67100,4265,1755,2511,2321,1945
1600279,AP,Laranjal do Jari,LARANJAL DO JARI,N,22,30966,-0.84200,-52.51600,39942,37905,2038,20435,19508
1600303,AP,Macapá,MACAPA,S,16,6407,0.03900,-51.06600,398204,381201,17004,195598,202607
1600402,AP,Mazagão,MAZAGAO,N,60,13131,-0.11500,-51.28900,17032,8273,8760,8975,8058
1600501,AP,Oiapoque,OIAPOQUE,N,10,22625,3.84300,-51.83500,20509,13852,6658,10704,9806
1600535,AP,Porto Grande,PORTO GRANDE,N,60,4402,0.71300,-51.41300,16809,10809,6001,8872,7938
1600550,AP,Pracuúba,PRACUUBA,N,0,4957,1.74300,-50.79100,3793,1881,1913,1998,1796
1600600,AP,Santana,SANTANA,N,15,1578,-0.05800,-51.18200,101262,99116,2147,50419,50844
1600709,AP,Tartarugalzinho,TARTARUGALZINHO,N,13,6712,1.50600,-50.91200,12563,6517,6047,6679,5885
1600808,AP,Vitória do Jari,VITORIA DO JARI,N,0,2483,-0.93800,-52.42400,12428,10302,2127,6427,6002
1700251,TO,Abreulândia,ABREULANDIA,N,245,1895,-9.62100,-49.15100,2391,1476,916,1262,1130
1700301,TO,Aguiarnópolis,AGUIARNOPOLIS,N,150,235,-6.56300,-47.46600,5162,4142,1021,2619,2544
1700350,TO,Aliança do Tocantins,ALIANCA DO TOCANTINS,N,333,1580,-11.30600,-48.93600,5671,4757,915,2907,2765
1700400,TO,Almas,ALMAS,N,397,4021,-11.57400,-47.17000,7586,6009,1578,3966,3621
1700707,TO,Alvorada,ALVORADA,N,289,1212,-12.48000,-49.12500,8374,7766,609,4253,4122
1701002,TO,Ananás,ANANAS,N,220,1587,-6.36600,-48.07300,9865,8144,1722,4981,4885
1701051,TO,Angico,ANGICO,N,290,439,-6.39000,-47.86500,3175,1939,1237,1673,1503
1701101,TO,Aparecida do Rio Negro,APARECIDA DO RIO NEGRO,N,265,1160,-9.95200,-47.97200,4213,3314,900,2171,2043
1701309,TO,Aragominas,ARAGOMINAS,N,345,1173,-7.16200,-48.52800,5882,2230,3653,3139,2744
1701903,TO,Araguacema,ARAGUACEMA,N,159,2778,-8.80400,-49.55600,6317,2925,3393,3331,2987
1702000,TO,Araguaçu,ARAGUACU,N,278,5168,-12.93100,-49.82600,8786,5883,2904,4511,4276
1702109,TO,Araguaína,ARAGUAINA,N,227,4000,-7.19100,-48.20700,150484,142930,7555,73587,76898
1702158,TO,Araguanã,ARAGUANA,N,142,835,-6.58100,-48.64400,5030,3387,1644,2584,2447
1702208,TO,Araguatins,ARAGUATINS,N,103,2627,-5.65100,-48.12400,31329,20136,11194,15969,15361
1702307,TO,Arapoema,ARAPOEMA,N,221,1552,-7.65800,-49.06400,6742,5455,1288,3448,3295
1702406,TO,Arraias,ARRAIAS,N,682,5787,-12.93100,-46.93800,10645,7371,3275,5393,5253
1702554,TO,Augustinópolis,AUGUSTINOPOLIS,N,145,414,-5.46600,-47.88800,15950,13177,2774,8006,7945
1702703,TO,Aurora do Tocantins,AURORA DO TOCANTINS,N,468,753,-12.71300,-46.40800,3446,2483,964,1775,1672
1702901,TO,Axixá do Tocantins,AXIXA DO TOCANTINS,N,210,150,-5.61700,-47.76900,9275,7622,1654,4601,4675
1703008,TO,Babaçulândia,BABACULANDIA,N,178,1788,-7.20500,-47.75700,10424,4930,5495,5541,4884
1703057,TO,Bandeirantes do Tocantins,BANDEIRANTES DO TOCANTINS,N,288,1672,-7.75600,-48.58400,3122,1685,1438,1693,1430
1703073,TO,Barra do Ouro,BARRA DO OURO,N,161,1106,-7.68900,-47.68300,4123,2187,1937,2196,1928
1703107,TO,Barrolândia,BARROLANDIA,N,361,713,-9.83600,-48.72500,5349,4480,870,2758,2592
1703206,TO,Bernardo Sayão,BERNARDO SAYAO,N,149,927,-7.87400,-48.88800,4456,2188,2269,2326,2131
1703305,TO,Bom Jesus do Tocantins,BOM JESUS DO TOCANTINS,N,204,1333,-8.96500,-48.16600,3768,2826,942,1990,1779
1703602,TO,Brasilândia do Tocantins,BRASILANDIA DO TOCANTINS,N,224,641,-8.38800,-48.48100,2064,1436,629,1057,1008
1703701,TO,Brejinho de Nazaré,BREJINHO DE NAZARE,N,247,1724,-11.00000,-48.56600,5185,4196,990,2600,2586
1703800,TO,Buriti do Tocantins,BURITI DO TOCANTINS,N,198,250,-5.31600,-48.22900,9768,7454,2315,4939,4830
1703826,TO,Cachoeirinha,CACHOEIRINHA,N,190,352,-6.12200,-47.92200,2148,1732,417,1137,1012
1703842,TO,Campos Lindos,CAMPOS LINDOS,N,0,3240,-7.99400,-46.86800,8139,4820,3320,4265,3875
1703867,TO,Cariri do Tocantins,CARIRI DO TOCANTINS,N,295,1129,-11.89100,-49.16100,3756,2093,1664,2106,1651
1703883,TO,Carmolândia,CARMOLANDIA,N,0,339,-7.03300,-48.39600,2316,1825,492,1206,1111
1703891,TO,Carrasco Bonito,CARRASCO BONITO,N,285,195,-5.32200,-48.03500,3688,1968,1721,1919,1770
1703909,TO,Caseara,CASEARA,N,174,1692,-9.27800,-49.95600,4601,2738,1864,2384,2218
1704105,TO,Centenário,CENTENARIO,N,0,1955,-8.95100,-47.33600,2566,1504,1063,1376,1191
1704600,TO,Chapada de Areia,CHAPADA DE AREIA,N,240,659,-10.14400,-49.14000,1335,749,587,716,620
1705102,TO,Chapada da Natividade,CHAPADA DA NATIVIDADE,N,365,1671,-11.61700,-47.75100,3277,1656,1622,1792,1486
1705508,TO,Colinas do Tocantins,COLINAS DO TOCANTINS,N,227,844,-8.05900,-48.47500,30838,29608,1231,15290,15549
1705557,TO,Combinado,COMBINADO,N,383,210,-12.79200,-46.53900,4669,4000,670,2375,2295
1705607,TO,Conceição do Tocantins,CONCEICAO DO TOCANTINS,N,400,2501,-12.21900,-47.29800,4182,2912,1271,2132,2051
1706001,TO,Couto Magalhães,COUTO MAGALHAES,N,150,1586,-8.28400,-49.24700,5009,1884,3126,2639,2371
1706100,TO,Cristalândia,CRISTALANDIA,N,286,1848,-10.60000,-49.19300,7234,5924,1311,3699,3536
1706258,TO,Crixás do Tocantins,CRIXAS DO TOCANTINS,N,250,987,-11.10000,-48.91900,1564,872,693,821,744
1706506,TO,Darcinópolis,DARCINOPOLIS,N,0,1549,-6.71300,-47.76000,5273,3490,1784,2776,2498
1707009,TO,Dianópolis,DIANOPOLIS,N,693,3217,-11.62800,-46.82100,19112,16444,2669,9679,9434
1707108,TO,Divinópolis do Tocantins,DIVINOPOLIS DO TOCANTINS,N,270,2347,-9.80000,-49.21400,6363,4467,1897,3281,3083
1707207,TO,Dois Irmãos do Tocantins,DOIS IRMAOS DO TOCANTINS,N,241,3757,-9.25800,-49.06400,7161,2778,4384,3958,3204
1707306,TO,Dueré,DUERE,N,235,3425,-11.34400,-49.27100,4592,3056,1537,2441,2152
1707405,TO,Esperantina,ESPERANTINA,N,0,504,-5.34300,-48.51100,9476,4614,4863,4911,4566
1707553,TO,Fátima,FATIMA,N,342,383,-10.76100,-48.90700,3805,3135,671,1909,1897
1707652,TO,Figueirópolis,FIGUEIROPOLIS,N,291,1930,-12.13100,-49.17400,5340,4055,1286,2706,2635
1707702,TO,Filadélfia,FILADELFIA,N,169,1988,-7.33600,-47.49000,8505,5538,2968,4471,4035
1708205,TO,Formoso do Araguaia,FORMOSO DO ARAGUAIA,N,240,13423,-11.79700,-49.52900,18427,13334,5094,9608,8820
1708254,TO,Fortaleza do Tabocão,FORTALEZA DO TABOCAO,N,0,622,-9.05700,-48.51900,2419,1969,451,1234,1186
1708304,TO,Goianorte,GOIANORTE,N,256,1801,-8.77600,-48.93200,4956,2760,2197,2649,2308
1709005,TO,Goiatins,GOIATINS,N,192,6409,-7.71000,-47.31400,12064,4949,7116,6287,5778
1709302,TO,Guaraí,GUARAI,N,259,2268,-8.83400,-48.51000,23200,21129,2072,11689,11515
1709500,TO,Gurupi,GURUPI,N,287,1836,-11.72900,-49.06900,76755,74998,1758,38109,38647
1709807,TO,Ipueiras,IPUEIRAS,N,237,815,-11.23900,-48.46300,1639,958,682,865,775
1710508,TO,Itacajá,ITACAJA,N,196,3051,-8.39200,-47.76800,7104,4274,2831,3732,3373
1710706,TO,Itaguatins,ITAGUATINS,N,130,740,-5.76800,-47.48100,6029,3397,2633,3104,2926
1710904,TO,Itapiratins,ITAPIRATINS,N,160,1244,-8.38400,-48.11100,3532,1914,1619,1913,1620
1711100,TO,Itaporã do Tocantins,ITAPORA DO TOCANTINS,N,350,919,-8.57100,-48.68900,2445,1564,882,1286,1160
1711506,TO,Jaú do Tocantins,JAU DO TOCANTINS,N,365,2173,-12.65400,-48.59400,3507,1310,2198,1815,1693
1711803,TO,Juarina,JUARINA,N,180,481,-8.11900,-49.06500,2231,1033,1199,1176,1056
1711902,TO,Lagoa da Confusão,LAGOA DA CONFUSAO,N,0,10565,-10.79400,-49.62400,10210,6333,3878,5525,4686
1711951,TO,Lagoa do Tocantins,LAGOA DO TOCANTINS,N,0,911,-10.37800,-47.55100,3525,2538,987,1830,1696
1712009,TO,Lajeado,LAJEADO,N,202,322,-9.75100,-48.35800,2773,2166,608,1464,1310
1712157,TO,Lavandeira,LAVANDEIRA,N,330,520,-12.78900,-46.50600,1605,1024,582,838,768
1712405,TO,Lizarda,LIZARDA,N,423,5723,-9.59400,-46.67300,3725,2583,1143,2008,1718
1712454,TO,Luzinópolis,LUZINOPOLIS,N,250,280,-6.18200,-47.85600,2622,1675,948,1351,1272
1712504,TO,Marianópolis do Tocantins,MARIANOPOLIS DO TOCANTINS,N,146,2091,-9.79600,-49.65400,4352,2384,1969,2318,2035
1712702,TO,Mateiros,MATEIROS,N,493,9592,-10.54800,-46.42100,2223,1417,807,1188,1036
1712801,TO,Maurilândia do Tocantins,MAURILANDIA DO TOCANTINS,N,0,738,-5.95300,-47.50600,3154,2017,1138,1697,1458
1713205,TO,Miracema do Tocantins,MIRACEMA DO TOCANTINS,N,197,2656,-9.56700,-48.39200,20684,17938,2747,10347,10338
1713304,TO,Miranorte,MIRANORTE,N,222,1032,-9.52900,-48.59000,12623,11037,1587,6423,6201
1713601,TO,Monte do Carmo,MONTE DO CARMO,N,295,3617,-10.76300,-48.10900,6716,2882,3835,3602,3115
1713700,TO,Monte Santo do Tocantins,MONTE SANTO DO TOCANTINS,N,280,1092,-10.00400,-48.99500,2085,450,1636,1121,965
1713809,TO,Palmeiras do Tocantins,PALMEIRAS DO TOCANTINS,N,0,748,-6.61300,-47.54600,5740,3233,2508,2992,2749
1713957,TO,Muricilândia,MURICILANDIA,N,190,1188,-7.14700,-48.61100,3152,1801,1352,1658,1495
1714203,TO,Natividade,NATIVIDADE,N,323,3216,-11.71000,-47.72300,9000,7195,1806,4597,4404
1714302,TO,Nazaré,NAZARE,N,240,396,-6.37200,-47.66400,4386,1991,2396,2262,2125
1714880,TO,Nova Olinda,NOVA OLINDA,N,257,1566,-7.63200,-48.42300,10686,7466,3221,5576,5111
1715002,TO,Nova Rosalândia,NOVA ROSALANDIA,N,255,489,-10.56700,-48.91400,3770,2468,1303,1965,1806
1715101,TO,Novo Acordo,NOVO ACORDO,N,205,2672,-9.96300,-47.67700,3762,3083,680,1921,1842
1715150,TO,Novo Alegre,NOVO ALEGRE,N,539,200,-12.93100,-46.57400,2286,1699,588,1181,1106
1715259,TO,Novo Jardim,NOVO JARDIM,N,0,1310,-11.82400,-46.62800,2457,1776,682,1277,1181
1715507,TO,Oliveira de Fátima,OLIVEIRA DE FATIMA,N,302,206,-10.70800,-48.90700,1037,817,221,552,486
1715705,TO,Palmeirante,PALMEIRANTE,N,140,2641,-7.86000,-47.92600,4954,1927,3028,2659,2296
1715754,TO,Palmeirópolis,PALMEIROPOLIS,N,438,1704,-13.04400,-48.40200,7339,5982,1358,3704,3636
1716109,TO,Paraíso do Tocantins,PARAISO DO TOCANTINS,N,387,1297,-10.17600,-48.86700,44417,42472,1946,22111,22307
1716208,TO,Paranã,PARANA,N,274,11260,-12.61500,-47.88300,10338,4721,5618,5444,4895
1716307,TO,Pau D'Arco,PAU D'ARCO,N,0,1301,-7.54000,-49.37200,4588,2901,1688,2460,2129
1716505,TO,Pedro Afonso,PEDRO AFONSO,N,201,2011,-8.96800,-48.17500,11539,10016,1524,5970,5570
1716604,TO,Peixe,PEIXE,N,240,5291,-12.02500,-48.53900,10384,5235,5150,5427,4958
1716653,TO,Pequizeiro,PEQUIZEIRO,N,283,1210,-8.59500,-48.93400,5054,2391,2664,2667,2388
1716703,TO,Colméia,COLMEIA,N,362,991,-8.72900,-48.76500,8611,6371,2241,4369,4243
1717008,TO,Pindorama do Tocantins,PINDORAMA DO TOCANTINS,N,429,1559,-11.13900,-47.57900,4506,2947,1560,2386,2121
1717206,TO,Piraquê,PIRAQUE,N,186,922,-6.77400,-48.29700,2920,1122,1799,1626,1295
1717503,TO,Pium,PIUM,N,249,10013,-10.44300,-49.18200,6694,3779,2916,3526,3169
1717800,TO,Ponte Alta do Bom Jesus,PONTE ALTA DO BOM JESUS,N,512,1806,-12.09100,-46.47900,4544,2502,2043,2406,2139
1717909,TO,Ponte Alta do Tocantins,PONTE ALTA DO TOCANTINS,N,294,6491,-10.74400,-47.53600,7180,4527,2654,3880,3301
1718006,TO,Porto Alegre do Tocantins,PORTO ALEGRE DO TOCANTINS,N,387,502,-11.60900,-47.04900,2796,1919,878,1431,1366
1718204,TO,Porto Nacional,PORTO NACIONAL,N,212,4450,-10.70800,-48.41700,49146,42433,6714,24519,24628
1718303,TO,Praia Norte,PRAIA NORTE,N,122,289,-5.39300,-47.81100,7659,4469,3191,3897,3763
1718402,TO,Presidente Kennedy,PRESIDENTE KENNEDY,N,247,770,-8.53900,-48.50600,3681,3228,454,1883,1799
1718451,TO,Pugmil,PUGMIL,N,340,402,-10.42400,-48.89400,2369,2004,366,1257,1113
1718501,TO,Recursolândia,RECURSOLANDIA,N,0,2217,-8.73700,-47.24700,3768,1990,1779,2008,1761
1718550,TO,Riachinho,RIACHINHO,N,160,611,-6.43800,-48.13700,4191,1813,2379,2169,2023
1718659,TO,Rio da Conceição,RIO DA CONCEICAO,N,496,771,-11.40000,-46.88300,1714,1574,141,886,829
1718709,TO,Rio dos Bois,RIO DOS BOIS,N,230,845,-9.29300,-48.46600,2570,1030,1541,1362,1209
1718758,TO,Rio Sono,RIO SONO,N,196,6357,-9.34400,-47.90200,6254,2408,3847,3380,2875
1718808,TO,Sampaio,SAMPAIO,N,115,201,-5.34800,-47.87300,3864,3516,349,1970,1895
1718840,TO,Sandolândia,SANDOLANDIA,N,0,3529,-12.53700,-49.92500,3326,1765,1562,1742,1585
1718865,TO,Santa Fé do Araguaia,SANTA FE DO ARAGUAIA,N,190,1677,-7.15700,-48.72100,6599,4374,2226,3417,3183
1718881,TO,Santa Maria do Tocantins,SANTA MARIA DO TOCANTINS,N,310,1410,-8.79700,-47.79500,2894,1726,1169,1518,1377
1718899,TO,Santa Rita do Tocantins,SANTA RITA DO TOCANTINS,N,280,3275,-10.86100,-48.91400,2128,919,1210,1109,1020
1718907,TO,Santa Rosa do Tocantins,SANTA ROSA DO TOCANTINS,N,310,1796,-11.44900,-48.12100,4568,2947,1622,2411,2158
1719004,TO,Santa Tereza do Tocantins,SANTA TEREZA DO TOCANTINS,N,263,540,-10.28200,-47.80800,2523,1616,908,1339,1185
1720002,TO,Santa Terezinha do Tocantins,SANTA TEREZINHA DO TOCANTINS,N,250,270,-6.43400,-47.67300,2474,1594,881,1268,1207
1720101,TO,São Bento do Tocantins,SAO BENTO DO TOCANTINS,N,230,1106,-5.91500,-48.06000,4608,2716,1893,2404,2205
1720150,TO,São Félix do Tocantins,SAO FELIX DO TOCANTINS,N,0,1909,-10.16800,-46.65900,1437,932,506,770,668
1720200,TO,São Miguel do Tocantins,SAO MIGUEL DO TOCANTINS,N,160,399,-5.55500,-47.57500,10481,2547,7935,5290,5192
1720259,TO,São Salvador do Tocantins,SAO SALVADOR DO TOCANTINS,N,120,1422,-12.74400,-48.23600,2910,1588,1323,1487,1424
1720309,TO,São Sebastião do Tocantins,SAO SEBASTIAO DO TOCANTINS,N,105,287,-5.25700,-48.20000,4283,3283,1001,2199,2085
1720499,TO,São Valério,SAO VALERIO,N,360,2520,-11.97500,-48.23400,4383,2724,1660,2267,2117
1720655,TO,Silvanópolis,SILVANOPOLIS,N,269,1259,-11.14700,-48.16900,5068,4061,1008,2656,2413
1720804,TO,Sítio Novo do Tocantins,SITIO NOVO DO TOCANTINS,N,200,324,-5.60100,-47.63800,9148,4875,4274,4631,4518
1720853,TO,Sucupira,SUCUPIRA,N,250,1026,-11.99300,-48.97100,1742,1106,637,894,849
1720903,TO,Taguatinga,TAGUATINGA,N,599,2437,-12.40400,-46.43600,15051,10628,4424,7884,7168
1720937,TO,Taipas do Tocantins,TAIPAS DO TOCANTINS,N,407,1116,-12.18800,-46.98900,1945,1557,389,1018,928
1720978,TO,Talismã,TALISMA,N,270,2157,-12.79500,-49.09300,2562,1363,1200,1351,1212
1721000,TO,Palmas,PALMAS,S,230,2219,-10.16700,-48.33300,228332,221734,6599,112842,115491
1721109,TO,Tocantínia,TOCANTINIA,N,202,2602,-9.56400,-48.37700,6736,2956,3781,3476,3261
1721208,TO,Tocantinópolis,TOCANTINOPOLIS,N,134,1077,-6.32900,-47.41600,22619,18320,4300,11201,11419
1721257,TO,Tupirama,TUPIRAMA,N,202,712,-8.97300,-48.18800,1574,931,644,844,731
1721307,TO,Tupiratins,TUPIRATINS,N,160,895,-8.39400,-48.11600,2097,1066,1032,1088,1010
1722081,TO,Wanderlândia,WANDERLANDIA,N,257,1373,-6.84900,-47.96300,10981,5869,5113,5648,5334
1722107,TO,Xambioá,XAMBIOA,N,141,1634,-6.41100,-48.53600,11484,9739,1746,5908,5577
2100055,MA,Açailândia,ACAILANDIA,N,240,5806,-4.94700,-47.50500,104047,78233,25815,52118,51930
2100105,MA,Afonso Cunha,AFONSO CUNHA,N,76,371,-4.13300,-43.32400,5905,3235,2671,2972,2934
2100154,MA,Água Doce do Maranhão,AGUA DOCE DO MARANHAO,N,21,443,-2.84100,-42.11200,11581,3133,8449,6018,5564
2100204,MA,Alcântara,ALCANTARA,N,32,1483,-2.40900,-44.41500,21851,6398,15454,11258,10594
2100303,MA,Aldeias Altas,ALDEIAS ALTAS,N,94,1942,-4.62800,-43.47100,23952,13634,10319,12396,11557
2100402,MA,Altamira do Maranhão,ALTAMIRA DO MARANHAO,N,0,669,-4.16500,-45.47000,11063,3155,7909,5567,5497
2100436,MA,Alto Alegre do Maranhão,ALTO ALEGRE DO MARANHAO,N,50,421,-4.21300,-44.44600,24599,19375,5225,12275,12325
2100477,MA,Alto Alegre do Pindaré,ALTO ALEGRE DO PINDARE,N,0,1932,-3.69000,-45.90300,31057,9830,21228,16023,15035
2100501,MA,Alto Parnaíba,ALTO PARNAIBA,N,282,11132,-9.11100,-45.93000,10766,7029,3738,5469,5298
2100550,MA,Amapá do Maranhão,AMAPA DO MARANHAO,N,0,442,-1.67500,-46.00200,6431,4842,1590,3312,3120
2100600,MA,Amarante do Maranhão,AMARANTE DO MARANHAO,N,249,7669,-5.56700,-46.74200,37932,15003,22930,19782,18151
2100709,MA,Anajatuba,ANAJATUBA,N,9,1117,-3.26400,-44.62000,25291,7016,18276,12960,12332
2100808,MA,Anapurus,ANAPURUS,N,82,608,-3.67200,-43.11600,13939,7165,6775,7020,6920
2100832,MA,Apicum-Açu,APICUM-ACU,N,0,652,-1.46100,-45.10300,14959,9163,5797,7817,7143
2100873,MA,Araguanã,ARAGUANA,N,0,804,-2.95300,-45.66500,13973,5377,8597,7120,6854
2100907,MA,Araioses,ARAIOSES,N,6,1783,-2.89000,-41.90300,42505,12046,30460,22010,20496
2100956,MA,Arame,ARAME,N,10,3045,-4.73300,-45.90800,31702,12551,19152,16482,15221
2101004,MA,Arari,ARARI,N,7,1100,-3.45400,-44.78000,28488,17484,11005,14316,14173
2101103,MA,Axixá,AXIXA,N,27,203,-2.83700,-44.05300,11407,4704,6704,5823,5585
2101202,MA,Bacabal,BACABAL,N,21,1683,-4.22500,-44.78000,100014,77861,22154,47757,52258
2101251,MA,Bacabeira,BACABEIRA,N,44,616,-2.97100,-44.31600,14925,3324,11602,7511,7415
2101301,MA,Bacuri,BACURI,N,15,788,-1.70300,-45.13400,16604,8686,7919,8487,8118
2101350,MA,Bacurituba,BACURITUBA,N,15,675,-2.70600,-44.73800,5293,1424,3870,2745,2549
2101400,MA,Balsas,BALSAS,N,247,13142,-7.53300,-46.03600,83528,72770,10759,41572,41957
2101509,MA,Barão de Grajaú,BARAO DE GRAJAU,N,108,2247,-6.75600,-43.02400,17841,10339,7503,8937,8905
2101608,MA,Barra do Corda,BARRA DO CORDA,N,83,7962,-5.50600,-45.24300,82830,51645,31186,41656,41175
2101707,MA,Barreirinhas,BARREIRINHAS,N,4,3111,-2.74700,-42.82600,54930,22055,32876,28130,26801
2101731,MA,Belágua,BELAGUA,N,92,499,-3.15500,-43.51000,6524,3264,3261,3424,3101
2101772,MA,Bela Vista do Maranhão,BELA VISTA DO MARANHAO,N,0,253,-3.73100,-45.31500,12049,5171,6879,6109,5941
2101806,MA,Benedito Leite,BENEDITO LEITE,N,173,1782,-7.22300,-44.55800,5469,2814,2656,2855,2615
2101905,MA,Bequimão,BEQUIMAO,N,17,769,-2.44900,-44.78300,20344,6606,13739,10349,9996
2101939,MA,Bernardo do Mearim,BERNARDO DO MEARIM,N,0,261,-4.58400,-44.76400,5996,2325,3672,2973,3024
2101970,MA,Boa Vista do Gurupi,BOA VISTA DO GURUPI,N,0,401,-1.78800,-46.30300,7949,5620,2330,4042,3908
2102002,MA,Bom Jardim,BOM JARDIM,N,40,6590,-3.56500,-45.99400,39049,16385,22665,19849,19201
2102036,MA,Bom Jesus das Selvas,BOM JESUS DAS SELVAS,N,0,2679,-4.42000,-46.76500,28459,13430,15030,14873,13587
2102077,MA,Bom Lugar,BOM LUGAR,N,0,446,-4.22000,-45.03900,14818,4182,10637,7553,7266
2102101,MA,Brejo,BREJO,N,55,1075,-3.68400,-42.75000,33359,12340,21020,16883,16477
2102150,MA,Brejo de Areia,BREJO DE AREIA,N,0,483,-4.33400,-45.58100,5577,2854,2724,2868,2710
2102200,MA,Buriti,BURITI,N,227,1474,-3.94200,-42.92500,27013,8399,18615,13677,13337
2102309,MA,Buriti Bravo,BURITI BRAVO,N,227,1583,-5.83700,-43.83400,22899,17014,5886,11326,11574
2102325,MA,Buriticupu,BURITICUPU,N,0,2545,-4.34600,-46.40100,65237,35790,29448,33317,31921
2102358,MA,Buritirana,BURITIRANA,N,250,818,-5.59300,-47.01800,14784,4146,10639,7536,7249
2102374,MA,Cachoeira Grande,CACHOEIRA GRANDE,N,48,706,-2.92700,-44.05800,8446,3793,4654,4403,4044
2102408,MA,Cajapió,CAJAPIO,N,18,909,-2.88100,-44.67500,10593,3886,6708,5366,5228
2102507,MA,Cajari,CAJARI,N,13,544,-3.32100,-45.01100,18338,4284,14055,9509,8830
2102556,MA,Campestre do Maranhão,CAMPESTRE DO MARANHAO,N,100,615,-6.17200,-47.36400,13369,10621,2749,6820,6550
2102606,MA,Cândido Mendes,CANDIDO MENDES,N,10,1732,-1.44700,-45.71700,18505,11912,6594,9690,8816
2102705,MA,Cantanhede,CANTANHEDE,N,25,798,-3.63300,-44.37700,20448,12960,7489,10255,10194
2102754,MA,Capinzal do Norte,CAPINZAL DO NORTE,N,132,627,-4.72800,-44.32700,10698,5611,5088,5345,5354
2102804,MA,Carolina,CAROLINA,N,167,6442,-7.33300,-47.46900,23959,16238,7722,12287,11673
2102903,MA,Carutapera,CARUTAPERA,N,26,1256,-1.19500,-46.02000,22006,16226,5781,11338,10669
2103000,MA,Caxias,CAXIAS,N,66,5224,-4.85900,-43.35600,155129,118535,36595,75083,80047
2103109,MA,Cedral,CEDRAL,N,30,262,-2.00000,-44.53600,10297,2398,7900,5395,4903
2103125,MA,Central do Maranhão,CENTRAL DO MARANHAO,N,45,366,-2.19900,-44.82600,7887,4087,3801,4088,3800
2103158,MA,Centro do Guilherme,CENTRO DO GUILHERME,N,0,1074,-2.36900,-46.00200,12565,7072,5494,6641,5925
2103174,MA,Centro Novo do Maranhão,CENTRO NOVO DO MARANHAO,N,0,8295,-2.10700,-46.12800,17622,5523,12100,9331,8292
2103208,MA,Chapadinha,CHAPADINHA,N,105,3247,-3.74200,-43.36000,73350,52886,20465,36243,37108
2103257,MA,Cidelândia,CIDELANDIA,N,241,1464,-5.17400,-47.78200,13681,6037,7645,7012,6670
2103307,MA,Codó,CODO,N,47,4364,-4.45500,-43.88600,118038,81045,36994,57402,60637
2103406,MA,Coelho Neto,COELHO NETO,N,81,976,-4.25700,-43.01300,46750,38728,8023,23001,23749
2103505,MA,Colinas,COLINAS,N,141,2034,-6.02600,-44.24900,39132,25577,13556,19394,19739
2103554,MA,Conceição do Lago-Açu,CONCEICAO DO LAGO-ACU,N,21,827,-3.83400,-44.89300,14436,6869,7568,7481,6956
2103604,MA,Coroatá,COROATA,N,35,2264,-4.13000,-44.12400,61725,43060,18666,30665,31061
2103703,MA,Cururupu,CURURUPU,N,12,936,-1.82800,-44.86800,32652,22269,10384,16601,16052
2103752,MA,Davinópolis,DAVINOPOLIS,N,180,337,-5.55800,-47.42600,12579,10488,2092,6271,6309
2103802,MA,Dom Pedro,DOM PEDRO,N,142,370,-5.03300,-44.43600,22681,15263,7419,10951,11731
2103901,MA,Duque Bacelar,DUQUE BACELAR,N,74,318,-4.15600,-42.94400,10649,5341,5309,5384,5266
2104008,MA,Esperantinópolis,ESPERANTINOPOLIS,N,90,481,-4.88300,-44.68800,18452,10035,8418,9075,9378
2104057,MA,Estreito,ESTREITO,N,153,2719,-6.56100,-47.45100,35835,25780,10056,19018,16818
2104073,MA,Feira Nova do Maranhão,FEIRA NOVA DO MARANHAO,N,331,1473,-6.96000,-46.68600,8126,1927,6200,4267,3860
2104081,MA,Fernando Falcão,FERNANDO FALCAO,N,210,3506,-6.15200,-44.89300,9241,1507,7735,4839,4403
2104099,MA,Formosa da Serra Negra,FORMOSA DA SERRA NEGRA,N,288,3941,-6.43500,-46.19100,17757,5915,11843,9325,8433
2104107,MA,Fortaleza dos Nogueiras,FORTALEZA DOS NOGUEIRAS,N,430,1664,-6.96400,-46.17700,11646,7020,4627,5973,5674
2104206,MA,Fortuna,FORTUNA,N,215,695,-5.73300,-44.15800,15098,9505,5594,7613,7486
2104305,MA,Godofredo Viana,GODOFREDO VIANA,N,10,640,-1.40300,-45.78000,10635,6724,3912,5567,5069
2104404,MA,Gonçalves Dias,GONCALVES DIAS,N,140,876,-5.15100,-44.29900,17482,7771,9712,8677,8806
2104503,MA,Governador Archer,GOVERNADOR ARCHER,N,145,436,-5.02200,-44.27100,10205,6631,3575,5066,5140
2104552,MA,Governador Edison Lobão,GOVERNADOR EDISON LOBAO,N,208,616,-5.74900,-47.36100,15895,6958,8938,8153,7743
2104602,MA,Governador Eugênio Barros,GOVERNADOR EUGENIO BARROS,N,145,817,-5.32300,-44.24700,15991,4691,11301,8060,7932
2104628,MA,Governador Luiz Rocha,GOVERNADOR LUIZ ROCHA,N,119,373,-5.46900,-44.07400,7337,5188,2150,3750,3588
2104651,MA,Governador Newton Bello,GOVERNADOR NEWTON BELLO,N,0,1161,-3.42600,-45.67600,11921,4292,7630,6016,5906
2104677,MA,Governador Nunes Freire,GOVERNADOR NUNES FREIRE,N,0,1037,-2.12600,-45.88500,25401,15945,9457,12864,12538
2104701,MA,Graça Aranha,GRACA ARANHA,N,192,271,-5.41000,-44.33400,6140,2913,3228,3031,3110
2104800,MA,Grajaú,GRAJAU,N,172,7408,-5.81900,-46.13900,62093,37039,25055,31699,30395
2104909,MA,Guimarães,GUIMARAES,N,41,599,-2.13300,-44.60100,12081,6910,5172,6140,5942
2105005,MA,Humberto de Campos,HUMBERTO DE CAMPOS,N,17,2131,-2.59800,-43.46100,26189,10508,15682,13684,12506
2105104,MA,Icatu,ICATU,N,12,1449,-2.77600,-44.06600,25145,7816,17330,13094,12052
2105153,MA,Igarapé do Meio,IGARAPE DO MEIO,N,0,393,-3.66100,-45.22700,12550,6208,6343,6348,6203
2105203,MA,Igarapé Grande,IGARAPE GRANDE,N,80,374,-4.58500,-44.85300,11041,6665,4377,5426,5616
2105302,MA,Imperatriz,IMPERATRIZ,N,116,1368,-5.52600,-47.47600,247505,234536,12970,119224,128282
2105351,MA,Itaipava do Grajaú,ITAIPAVA DO GRAJAU,N,110,1540,-5.14500,-45.79100,14297,4297,10001,7389,6909
2105401,MA,Itapecuru Mirim,ITAPECURU MIRIM,N,20,1166,-3.39300,-44.35900,62110,34670,27441,31024,31087
2105427,MA,Itinga do Maranhão,ITINGA DO MARANHAO,N,200,3590,-4.45000,-47.52600,24863,17641,7223,12589,12275
2105450,MA,Jatobá,JATOBA,N,190,387,-5.81700,-44.22300,8526,3741,4786,4304,4223
2105476,MA,Jenipapo dos Vieiras,JENIPAPO DOS VIEIRAS,N,150,1507,-5.37100,-45.63600,15440,2519,12922,7977,7464
2105500,MA,João Lisboa,JOAO LISBOA,N,291,1127,-5.44800,-47.40100,20381,15337,5045,9977,10405
2105609,MA,Joselândia,JOSELANDIA,N,60,682,-4.96700,-44.70000,15433,5961,9473,7816,7618
2105658,MA,Junco do Maranhão,JUNCO DO MARANHAO,N,0,539,-1.84400,-46.09200,4020,2819,1202,2008,2013
2105708,MA,Lago da Pedra,LAGO DA PEDRA,N,95,1636,-4.57000,-45.13200,46083,30047,16037,22964,23120
2105807,MA,Lago do Junco,LAGO DO JUNCO,N,90,309,-4.60900,-45.04900,10729,3913,6817,5415,5315
2105906,MA,Lago Verde,LAGO VERDE,N,16,460,-3.95700,-44.82200,15412,5053,10360,7730,7683
2105922,MA,Lagoa do Mato,LAGOA DO MATO,N,200,1289,-6.04700,-43.52600,10934,4454,6481,5610,5325
2105948,MA,Lago dos Rodrigues,LAGO DOS RODRIGUES,N,0,195,-4.60900,-44.98000,7794,4849,2946,3866,3929
2105963,MA,Lagoa Grande do Maranhão,LAGOA GRANDE DO MARANHAO,N,0,734,-4.81300,-45.33000,10517,5500,5018,5544,4974
2105989,MA,Lajeado Novo,LAJEADO NOVO,N,100,1048,-6.18900,-47.03500,6923,3195,3729,3625,3299
2106003,MA,Lima Campos,LIMA CAMPOS,N,82,322,-4.52000,-44.46700,11423,6794,4630,5616,5808
2106102,MA,Loreto,LORETO,N,193,3597,-7.08400,-45.14100,11390,6361,5030,5871,5520
2106201,MA,Luís Domingues,LUIS DOMINGUES,N,5,467,-1.26800,-45.87300,6510,5503,1008,3399,3112
2106300,MA,Magalhães de Almeida,MAGALHAES DE ALMEIDA,N,36,433,-3.39600,-42.20400,17587,8963,8625,8979,8609
2106326,MA,Maracaçumé,MARACACUME,N,0,629,-2.04300,-45.95900,19155,15830,3326,9593,9563
2106359,MA,Marajá do Sena,MARAJA DO SENA,N,0,824,-4.59900,-45.57700,8051,1158,6894,4391,3661
2106375,MA,Maranhãozinho,MARANHAOZINHO,N,0,956,-2.24100,-45.85100,14065,9020,5046,7168,6898
2106409,MA,Mata Roma,MATA ROMA,N,80,548,-3.62500,-43.11100,15150,7133,8018,7592,7559
2106508,MA,Matinha,MATINHA,N,39,409,-3.10100,-45.03400,21885,8884,13002,11028,10858
2106607,MA,Matões,MATOES,N,38,1858,-5.51900,-43.19900,31015,13635,17381,15582,15434
2106631,MA,Matões do Norte,MATOES DO NORTE,N,30,782,-3.63200,-44.55600,13794,4679,9116,7241,6554
2106672,MA,Milagres do Maranhão,MILAGRES DO MARANHAO,N,20,439,-3.58100,-42.60900,8118,1760,6359,4197,3922
2106706,MA,Mirador,MIRADOR,N,186,8610,-6.37100,-44.36300,20452,9374,11079,10456,9997
2106755,MA,Miranda do Norte,MIRANDA DO NORTE,N,62,354,-3.56900,-44.58400,24427,19520,4908,11809,12619
2106805,MA,Mirinzal,MIRINZAL,N,31,688,-2.06500,-44.78400,14218,9032,5187,7287,6932
2106904,MA,Monção,MONCAO,N,14,1345,-3.49200,-45.25100,31738,11759,19980,16190,15549
2107001,MA,Montes Altos,MONTES ALTOS,N,244,1338,-5.83100,-47.06700,9413,5127,4287,4905,4509
2107100,MA,Morros,MORROS,N,38,1715,-2.86400,-44.03900,17783,6721,11063,9152,8632
2107209,MA,Nina Rodrigues,NINA RODRIGUES,N,15,573,-3.46600,-43.90500,12464,4439,8026,6336,6129
2107258,MA,Nova Colinas,NOVA COLINAS,N,400,743,-7.11600,-46.25700,4885,2210,2676,2600,2286
2107308,MA,Nova Iorque,NOVA IORQUE,N,178,977,-6.73400,-44.04400,4590,2877,1714,2331,2260
2107357,MA,Nova Olinda do Maranhão,NOVA OLINDA DO MARANHAO,N,0,2464,-2.84700,-45.69500,19134,11862,7273,9581,9554
2107407,MA,Olho d'Água das Cunhãs,OLHO D'AGUA DAS CUNHAS,N,30,553,-4.13900,-45.12000,18601,9593,9009,9186,9416
2107456,MA,Olinda Nova do Maranhão,OLINDA NOVA DO MARANHAO,N,28,198,-2.99800,-44.99700,13181,5982,7200,6806,6376
2107506,MA,Paço do Lumiar,PACO DO LUMIAR,N,16,132,-2.53200,-44.10800,105121,78810,26312,50911,54211
2107605,MA,Palmeirândia,PALMEIRANDIA,N,20,526,-2.64500,-44.89500,18764,3459,15306,9388,9377
2107704,MA,Paraibano,PARAIBANO,N,282,531,-6.43300,-43.98400,20103,15747,4357,9879,10225
2107803,MA,Parnarama,PARNARAMA,N,89,3487,-5.68200,-43.09300,34586,13531,21056,17525,17062
2107902,MA,Passagem Franca,PASSAGEM FRANCA,N,243,1358,-6.18000,-43.78400,17562,10464,7099,8694,8869
2108009,MA,Pastos Bons,PASTOS BONS,N,309,1620,-6.60200,-44.07700,18067,12308,5760,9180,8888
2108058,MA,Paulino Neves,PAULINO NEVES,N,4,979,-2.71900,-42.53300,14519,4654,9866,7502,7018
2108108,MA,Paulo Ramos,PAULO RAMOS,N,70,927,-4.44500,-45.23900,20079,10825,9255,10128,9952
2108207,MA,Pedreiras,PEDREIRAS,N,0,289,-4.57400,-44.59700,39448,32936,6513,18861,20588
2108256,MA,Pedro do Rosário,PEDRO DO ROSARIO,N,38,1750,-2.97300,-45.34900,22732,5890,16843,11837,10896
2108306,MA,Penalva,PENALVA,N,17,786,-3.29400,-45.17400,34267,16593,17675,17405,16863
2108405,MA,Peri Mirim,PERI MIRIM,N,11,405,-2.57800,-44.85400,13803,3668,10136,6989,6815
2108454,MA,Peritoró,PERITORO,N,53,748,-4.38300,-44.33300,21201,7752,13450,10569,10633
2108504,MA,Pindaré-Mirim,PINDARE-MIRIM,N,19,239,-3.60800,-45.34300,31152,22417,8736,15243,15910
2108603,MA,Pinheiro,PINHEIRO,N,15,1466,-2.52100,-45.08300,78162,46491,31672,38081,40082
2108702,MA,Pio XII,PIO XII,N,0,817,-3.89400,-45.17000,22016,12459,9558,11004,11013
2108801,MA,Pirapemas,PIRAPEMAS,N,39,689,-3.72700,-44.22300,17381,11147,6235,8667,8715
2108900,MA,Poção de Pedras,POCAO DE PEDRAS,N,90,655,-4.74600,-44.94300,19708,8378,11331,9920,9789
2109007,MA,Porto Franco,PORTO FRANCO,N,162,1417,-6.33800,-47.39900,21530,16867,4664,10849,10682
2109056,MA,Porto Rico do Maranhão,PORTO RICO DO MARANHAO,N,0,224,-1.89300,-44.60500,6030,2411,3620,3195,2836
2109106,MA,Presidente Dutra,PRESIDENTE DUTRA,N,112,794,-5.29000,-44.49000,44731,32001,12731,21968,22764
2109205,MA,Presidente Juscelino,PRESIDENTE JUSCELINO,N,15,442,-2.92800,-44.06500,11541,4121,7421,6004,5538
2109239,MA,Presidente Médici,PRESIDENTE MEDICI,N,0,438,-2.38700,-45.82000,6374,3905,2470,3295,3080
2109270,MA,Presidente Sarney,PRESIDENTE SARNEY,N,29,724,-2.59100,-45.36400,17165,4288,12878,8894,8272
2109304,MA,Presidente Vargas,PRESIDENTE VARGAS,N,58,467,-3.40700,-44.02400,10717,4582,6136,5461,5257
2109403,MA,Primeira Cruz,PRIMEIRA CRUZ,N,16,1368,-2.51000,-43.43800,13954,4290,9665,7410,6545
2109452,MA,Raposa,RAPOSA,N,3,64,-2.42300,-44.10300,26327,16676,9652,13122,13206
2109502,MA,Riachão,RIACHAO,N,383,6373,-7.36200,-46.61700,20209,10206,10004,10390,9820
2109551,MA,Ribamar Fiquene,RIBAMAR FIQUENE,N,156,900,-5.93000,-47.38400,7318,3678,3641,3771,3548
2109601,MA,Rosário,ROSARIO,N,14,685,-2.93400,-44.23500,39576,23251,16326,19658,19919
2109700,MA,Sambaíba,SAMBAIBA,N,212,2479,-7.14000,-45.34600,5487,2837,2651,2894,2594
2109759,MA,Santa Filomena do Maranhão,SANTA FILOMENA DO MARANHAO,N,180,404,-5.50100,-44.56100,7061,2293,4769,3671,3391
2109809,MA,Santa Helena,SANTA HELENA,N,29,2308,-2.23100,-45.30000,39110,19579,19532,19426,19685
2109908,MA,Santa Inês,SANTA INES,N,24,408,-3.66700,-45.38000,77282,73194,4089,36887,40396
2110005,MA,Santa Luzia,SANTA LUZIA,N,60,6133,-4.06900,-45.69000,74043,25790,48254,37703,36341
2110039,MA,Santa Luzia do Paruá,SANTA LUZIA DO PARUA,N,0,905,-2.62900,-45.77300,22644,12591,10054,11377,11268
2110104,MA,Santa Quitéria do Maranhão,SANTA QUITERIA DO MARANHAO,N,36,2113,-3.51600,-42.54700,29191,14141,15051,14736,14456
2110203,MA,Santa Rita,SANTA RITA,N,28,786,-3.14400,-44.32600,32366,14915,17452,16326,16041
2110237,MA,Santana do Maranhão,SANTANA DO MARANHAO,N,33,1095,-3.11600,-42.41200,11661,1843,9819,6028,5634
2110278,MA,Santo Amaro do Maranhão,SANTO AMARO DO MARANHAO,N,10,1601,-2.50000,-43.25400,13820,3631,10190,7314,6507
2110302,MA,Santo Antônio dos Lopes,SANTO ANTONIO DOS LOPES,N,129,770,-4.86900,-44.36000,14288,5733,8556,7190,7099
2110401,MA,São Benedito do Rio Preto,SAO BENEDITO DO RIO PRETO,N,34,932,-3.33400,-43.52800,17799,11050,6750,9041,8759
2110500,MA,São Bento,SAO BENTO,N,2,459,-2.69600,-44.82100,40736,23509,17228,19945,20792
2110609,MA,São Bernardo,SAO BERNARDO,N,43,1007,-3.36100,-42.41800,26476,11801,14676,13358,13119
2110658,MA,São Domingos do Azeitão,SAO DOMINGOS DO AZEITAO,N,308,1059,-6.81000,-44.64500,6983,4961,2023,3567,3417
2110708,MA,São Domingos do Maranhão,SAO DOMINGOS DO MARANHAO,N,191,1303,-5.57600,-44.38500,33607,17315,16293,16905,16703
2110807,MA,São Félix de Balsas,SAO FELIX DE BALSAS,N,188,2032,-7.08300,-44.81300,4702,1628,3075,2454,2249
2110856,MA,São Francisco do Brejão,SAO FRANCISCO DO BREJAO,N,255,746,-5.12300,-47.38600,10261,4837,5425,5268,4994
2110906,MA,São Francisco do Maranhão,SAO FRANCISCO DO MARANHAO,N,76,2746,-6.25100,-42.85700,12146,4105,8042,6152,5995
2111003,MA,São João Batista,SAO JOAO BATISTA,N,29,691,-2.95500,-44.80700,19920,5345,14576,10132,9789
2111029,MA,São João do Carú,SAO JOAO DO CARU,N,50,616,-3.55400,-46.25600,12309,6324,5986,6340,5970
2111052,MA,São João do Paraíso,SAO JOAO DO PARAISO,N,230,2054,-6.46100,-47.05800,10814,5277,5538,5777,5038
2111078,MA,São João do Soter,SAO JOAO DO SOTER,N,153,1438,-5.11400,-43.81000,17238,6646,10593,8816,8423
2111102,MA,São João dos Patos,SAO JOAO DOS PATOS,N,328,1501,-6.49500,-43.70200,24928,20569,4360,12210,12719
2111201,MA,São José de Ribamar,SAO JOSE DE RIBAMAR,N,20,386,-2.56200,-44.05400,163045,37713,125333,78686,84360
2111250,MA,São José dos Basílios,SAO JOSE DOS BASILIOS,N,80,363,-5.05100,-44.58400,7496,3006,4491,3757,3740
2111300,MA,São Luís,SAO LUIS,S,24,827,-2.53000,-44.30300,1014837,958514,56324,475046,539792
2111409,MA,São Luís Gonzaga do Maranhão,SAO LUIS GONZAGA DO MARANHAO,N,44,969,-4.38000,-44.67000,20153,7896,12258,10162,9992
2111508,MA,São Mateus do Maranhão,SAO MATEUS DO MARANHAO,N,44,783,-4.04000,-44.47000,39093,28714,10380,19230,19864
2111532,MA,São Pedro da Água Branca,SAO PEDRO DA AGUA BRANCA,N,171,720,-5.08500,-48.42900,12028,10713,1316,6116,5913
2111573,MA,São Pedro dos Crentes,SAO PEDRO DOS CRENTES,N,342,980,-6.82600,-46.53200,4425,2437,1989,2355,2071
2111607,MA,São Raimundo das Mangabeiras,SAO RAIMUNDO DAS MANGABEIRAS,N,225,3522,-7.02200,-45.48100,17474,12533,4942,8884,8591
2111631,MA,São Raimundo do Doca Bezerra,SAO RAIMUNDO DO DOCA BEZERRA,N,180,281,-5.10500,-45.07700,6090,1731,4360,3187,2904
2111672,MA,São Roberto,SAO ROBERTO,N,100,227,-5.02100,-44.99100,5957,2846,3112,3092,2866
2111706,MA,São Vicente Ferrer,SAO VICENTE FERRER,N,16,390,-2.89400,-44.88000,20863,5431,15433,10580,10284
2111722,MA,Satubinha,SATUBINHA,N,0,606,-4.03900,-45.23800,11990,3635,8356,6171,5820
2111748,MA,Senador Alexandre Costa,SENADOR ALEXANDRE COSTA,N,149,426,-5.25600,-44.05600,10256,6164,4093,5122,5135
2111763,MA,Senador La Rocque,SENADOR LA ROCQUE,N,180,747,-5.44300,-47.29100,17998,8740,9259,9061,8938
2111789,MA,Serrano do Maranhão,SERRANO DO MARANHAO,N,0,1207,-1.85600,-45.12300,10940,4228,6713,5851,5090
2111805,MA,Sítio Novo,SITIO NOVO,N,260,3115,-5.87800,-46.69900,17002,5140,11863,8942,8061
2111904,MA,Sucupira do Norte,SUCUPIRA DO NORTE,N,485,992,-6.47700,-44.19200,10444,4945,5500,5337,5108
2111953,MA,Sucupira do Riachão,SUCUPIRA DO RIACHAO,N,290,565,-6.41100,-43.54600,4613,2862,1752,2373,2241
2112001,MA,Tasso Fragoso,TASSO FRAGOSO,N,242,4383,-8.47500,-45.74300,7796,4648,3149,3973,3824
2112100,MA,Timbiras,TIMBIRAS,N,49,1486,-4.25500,-43.94100,27997,17471,10527,14091,13907
2112209,MA,Timon,TIMON,N,69,1741,-5.09400,-42.83700,155460,135126,20335,75554,79907
2112233,MA,Trizidela do Vale,TRIZIDELA DO VALE,N,0,223,-4.53800,-44.62800,18953,16171,2783,9142,9812
2112274,MA,Tufilândia,TUFILANDIA,N,0,277,-3.72900,-45.55400,5596,2732,2865,2857,2740
2112308,MA,Tuntum,TUNTUM,N,320,3573,-5.25800,-44.64900,39183,17927,21257,19992,19192
2112407,MA,Turiaçu,TURIACU,N,5,2578,-1.66300,-45.37200,33933,10930,23004,17625,16309
2112456,MA,Turilândia,TURILANDIA,N,0,1512,-2.20100,-45.34300,22846,10354,12493,11481,11366
2112506,MA,Tutóia,TUTOIA,N,20,1489,-2.76200,-42.27400,52788,18682,34107,26680,26109
2112605,MA,Urbano Santos,URBANO SANTOS,N,41,1208,-3.20800,-43.40400,24573,17374,7200,12373,12201
2112704,MA,Vargem Grande,VARGEM GRANDE,N,43,1958,-3.54300,-43.91600,49412,26688,22725,24618,24795
2112803,MA,Viana,VIANA,N,22,1162,-3.22000,-45.00400,49496,26916,22581,24714,24783
2112852,MA,Vila Nova dos Martírios,VILA NOVA DOS MARTIRIOS,N,307,1189,-5.18800,-48.13600,11258,6189,5070,5938,5321
2112902,MA,Vitória do Mearim,VITORIA DO MEARIM,N,13,726,-3.46200,-44.87100,31217,14813,16405,15565,15653
2113009,MA,Vitorino Freire,VITORINO FREIRE,N,50,1123,-4.28200,-45.25100,31658,16178,15481,15722,15937
2114007,MA,Zé Doca,ZE DOCA,N,0,2414,-3.24300,-45.82400,50173,30867,19307,24896,25278
2200053,PI,Acauã,ACAUA,N,374,1029,-8.21500,-41.08200,6749,901,5849,3459,3291
2200103,PI,Agricolândia,AGRICOLANDIA,N,230,112,-5.79900,-42.66900,5098,3603,1496,2456,2643
2200202,PI,Água Branca,AGUA BRANCA,N,240,97,-5.89000,-42.63800,16451,14540,1912,7805,8647
2200251,PI,Alagoinha do Piauí,ALAGOINHA DO PIAUI,N,375,448,-7.00800,-40.93900,7341,2670,4672,3683,3659
2200277,PI,Alegrete do Piauí,ALEGRETE DO PIAUI,N,0,281,-7.24300,-40.85800,5153,2838,2316,2556,2598
2200301,PI,Alto Longá,ALTO LONGA,N,170,1621,-5.25100,-42.21000,13646,6714,6933,6959,6688
2200400,PI,Altos,ALTOS,N,180,958,-5.03900,-42.46100,38822,27389,11434,19116,19707
2200459,PI,Alvorada do Gurguéia,ALVORADA DO GURGUEIA,N,281,2132,-8.42400,-43.77700,5050,1849,3202,2649,2402
2200509,PI,Amarante,AMARANTE,N,104,1305,-6.24100,-42.85500,17135,8772,8364,8318,8818
2200608,PI,Angical do Piauí,ANGICAL DO PIAUI,N,192,201,-6.08600,-42.73900,6672,5215,1458,3236,3437
2200707,PI,Anísio de Abreu,ANISIO DE ABREU,N,440,327,-9.18900,-43.04600,9098,4503,4596,4642,4457
2200806,PI,Antônio Almeida,ANTONIO ALMEIDA,N,240,653,-7.21900,-44.19800,3039,2224,816,1559,1481
2200905,PI,Aroazes,AROAZES,N,230,817,-6.11900,-41.79300,5779,3430,2350,2863,2917
2200954,PI,Aroeiras do Itaim,AROEIRAS DO ITAIM,N,0,0,-7.27600,-41.56400,2440,238,2203,1273,1168
2201002,PI,Arraial,ARRAIAL,N,155,636,-6.65500,-42.53200,4688,2434,2255,2316,2373
2201051,PI,Assunção do Piauí,ASSUNCAO DO PIAUI,N,532,1691,-5.19800,-41.04400,7503,3378,4126,3826,3678
2201101,PI,Avelino Lopes,AVELINO LOPES,N,437,1209,-10.13700,-43.94900,11067,6715,4353,5582,5486
2201150,PI,Baixa Grande do Ribeiro,BAIXA GRANDE DO RIBEIRO,N,325,7809,-7.85000,-45.21400,10516,6488,4029,5469,5048
2201176,PI,Barra D'Alcântara,BARRA D'ALCANTARA,N,310,351,-6.51700,-42.11400,3852,2032,1821,1821,2032
2201200,PI,Barras,BARRAS,N,70,1722,-4.24700,-42.29600,44850,22125,22726,22565,22286
2201309,PI,Barreiras do Piauí,BARREIRAS DO PIAUI,N,400,2028,-9.92500,-45.47500,3234,1876,1359,1691,1544
2201408,PI,Barro Duro,BARRO DURO,N,200,131,-5.81800,-42.51300,6607,4789,1819,3231,3377
2201507,PI,Batalha,BATALHA,N,150,1589,-4.02400,-42.07800,25774,9606,16169,13047,12728
2201556,PI,Bela Vista do Piauí,BELA VISTA DO PIAUI,N,330,312,-7.98900,-41.86800,3778,1243,2536,1936,1843
2201572,PI,Belém do Piauí,BELEM DO PIAUI,N,340,221,-7.37600,-40.97200,3284,1603,1682,1683,1602
2201606,PI,Beneditinos,BENEDITINOS,N,150,793,-5.45500,-42.36000,9911,6261,3651,5014,4898
2201705,PI,Bertolínia,BERTOLINIA,N,271,1225,-7.64100,-43.95100,5319,3895,1425,2680,2640
2201739,PI,Betânia do Piauí,BETANIA DO PIAUI,N,480,1092,-8.14800,-40.79600,6015,1679,4337,3113,2903
2201770,PI,Boa Hora,BOA HORA,N,121,336,-4.41100,-42.08600,6296,1525,4772,3205,3092
2201804,PI,Bocaina,BOCAINA,N,235,257,-6.94300,-41.32300,4369,1746,2624,2150,2220
2201903,PI,Bom Jesus,BOM JESUS,N,277,5469,-9.07400,-44.35900,22629,17624,5006,11304,11326
2201919,PI,Bom Princípio do Piauí,BOM PRINCIPIO DO PIAUI,N,70,522,-3.19100,-41.64500,5304,1654,3651,2747,2558
2201929,PI,Bonfim do Piauí,BONFIM DO PIAUI,N,0,294,-9.16600,-42.87400,5393,1636,3758,2694,2700
2201945,PI,Boqueirão do Piauí,BOQUEIRAO DO PIAUI,N,123,281,-4.48700,-42.07400,6193,2667,3527,3080,3114
2201960,PI,Brasileira,BRASILEIRA,N,180,881,-4.13100,-41.78200,7966,3483,4484,4075,3892
2201988,PI,Brejo do Piauí,BREJO DO PIAUI,N,297,2213,-8.21400,-42.82600,3850,1427,2424,1944,1907
2202000,PI,Buriti dos Lopes,BURITI DOS LOPES,N,50,691,-3.17500,-41.86700,19074,10295,8780,9623,9452
2202026,PI,Buriti dos Montes,BURITI DOS MONTES,N,500,2652,-5.31200,-41.09800,7974,2421,5554,4145,3830
2202059,PI,Cabeceiras do Piauí,CABECEIRAS DO PIAUI,N,0,609,-4.47600,-42.30900,9928,1657,8272,5095,4834
2202075,PI,Cajazeiras do Piauí,CAJAZEIRAS DO PIAUI,N,157,556,-6.76600,-42.39200,3343,1112,2232,1698,1646
2202083,PI,Cajueiro da Praia,CAJUEIRO DA PRAIA,N,10,271,-2.92800,-41.33600,7163,2700,4464,3742,3422
2202091,PI,Caldeirão Grande do Piauí,CALDEIRAO GRANDE DO PIAUI,N,0,514,-7.33200,-40.63700,5671,1663,4009,2846,2826
2202109,PI,Campinas do Piauí,CAMPINAS DO PIAUI,N,230,797,-7.66000,-41.88200,5408,1807,3602,2710,2699
2202117,PI,Campo Alegre do Fidalgo,CAMPO ALEGRE DO FIDALGO,N,330,756,-8.37600,-41.83600,4693,1224,3470,2405,2289
2202133,PI,Campo Grande do Piauí,CAMPO GRANDE DO PIAUI,N,440,292,-7.13200,-41.03600,5592,1570,4023,2840,2753
2202174,PI,Campo Largo do Piauí,CAMPO LARGO DO PIAUI,N,60,478,-3.81200,-42.62900,6803,1430,5374,3467,3337
2202208,PI,Campo Maior,CAMPO MAIOR,N,125,1699,-4.82800,-42.16900,45177,33522,11656,21780,23398
2202251,PI,Canavieira,CANAVIEIRA,N,180,1803,-7.68800,-43.72100,3921,1739,2183,2030,1892
2202307,PI,Canto do Buriti,CANTO DO BURITI,N,269,4410,-8.11000,-42.94400,20020,11130,8891,9954,10067
2202406,PI,Capitão de Campos,CAPITAO DE CAMPOS,N,130,539,-4.45700,-41.94400,10953,6348,4606,5439,5515
2202455,PI,Capitão Gervásio Oliveira,CAPITAO GERVASIO OLIVEIRA,N,400,1114,-8.49000,-41.82000,3878,1162,2717,2000,1879
2202505,PI,Caracol,CARACOL,N,566,449,-9.27900,-43.33000,10212,4028,6185,5202,5011
2202539,PI,Caraúbas do Piauí,CARAUBAS DO PIAUI,N,50,471,-3.47600,-41.84300,5525,972,4554,2838,2688
2202554,PI,Caridade do Piauí,CARIDADE DO PIAUI,N,347,423,-7.73300,-40.99000,4826,1580,3247,2500,2327
2202604,PI,Castelo do Piauí,CASTELO DO PIAUI,N,239,2064,-5.32200,-41.55300,18336,11479,6858,8983,9354
2202653,PI,Caxingó,CAXINGO,N,13,488,-3.41800,-41.89600,5039,966,4074,2657,2383
2202703,PI,Cocal,COCAL,N,160,1269,-3.47100,-41.55500,26036,12021,14016,13164,12873
2202711,PI,Cocal de Telha,COCAL DE TELHA,N,140,322,-4.55900,-41.97200,4525,2668,1858,2207,2319
2202729,PI,Cocal dos Alves,COCAL DOS ALVES,N,100,358,-3.72900,-41.44900,5572,1782,3791,2798,2775
2202737,PI,Coivaras,COIVARAS,N,190,507,-5.09400,-42.20700,3811,1174,2638,1970,1842
2202752,PI,Colônia do Gurguéia,COLONIA DO GURGUEIA,N,216,431,-8.18200,-43.79200,6036,4850,1187,2964,3073
2202778,PI,Colônia do Piauí,COLONIA DO PIAUI,N,0,948,-7.23100,-42.17800,7433,2644,4790,3701,3733
2202802,PI,Conceição do Canindé,CONCEICAO DO CANINDE,N,252,904,-7.87800,-41.59700,4475,2363,2113,2247,2229
2202851,PI,Coronel José Dias,CORONEL JOSE DIAS,N,0,1822,-8.81600,-42.51300,4541,1491,3051,2379,2163
2202901,PI,Corrente,CORRENTE,N,438,3051,-10.44300,-45.16200,25407,15694,9714,12844,12564
2203008,PI,Cristalândia do Piauí,CRISTALANDIA DO PIAUI,N,469,1203,-10.65300,-45.18500,7831,2946,4886,4087,3745
2203107,PI,Cristino Castro,CRISTINO CASTRO,N,239,1849,-8.81800,-44.22400,9981,7263,2719,5037,4945
2203206,PI,Curimatá,CURIMATA,N,328,2361,-10.03600,-44.30600,10761,7084,3678,5455,5307
2203230,PI,Currais,CURRAIS,N,320,3157,-9.00700,-44.41100,4704,924,3781,2473,2232
2203255,PI,Curralinhos,CURRALINHOS,N,126,363,-5.58300,-42.77800,4183,1332,2852,2145,2039
2203271,PI,Curral Novo do Piauí,CURRAL NOVO DO PIAUI,N,370,766,-7.83200,-40.90100,4869,1379,3491,2531,2339
2203305,PI,Demerval Lobão,DEMERVAL LOBAO,N,112,221,-5.35800,-42.67600,13278,10874,2405,6478,6801
2203354,PI,Dirceu Arcoverde,DIRCEU ARCOVERDE,N,740,1006,-9.33800,-42.42800,6675,2369,4307,3403,3273
2203404,PI,Dom Expedito Lopes,DOM EXPEDITO LOPES,N,405,219,-6.95900,-41.64100,6569,3573,2997,3221,3349
2203420,PI,Domingos Mourão,DOMINGOS MOURAO,N,150,847,-4.25400,-41.27000,4264,959,3306,2156,2109
2203453,PI,Dom Inocêncio,DOM INOCENCIO,N,340,4024,-9.00200,-41.97400,9245,2019,7227,4734,4512
2203503,PI,Elesbão Veloso,ELESBAO VELOSO,N,203,1286,-6.20200,-42.14000,14512,10124,4389,7149,7364
2203602,PI,Eliseu Martins,ELISEU MARTINS,N,258,1090,-8.09700,-43.66400,4665,3822,844,2403,2263
2203701,PI,Esperantina,ESPERANTINA,N,59,911,-3.90200,-42.23400,37767,23159,14609,18778,18990
2203750,PI,Fartura do Piauí,FARTURA DO PIAUI,N,0,718,-9.48400,-42.79100,5074,1336,3739,2575,2500
2203800,PI,Flores do Piauí,FLORES DO PIAUI,N,300,972,-7.79100,-42.92700,4366,1987,2380,2219,2148
2203859,PI,Floresta do Piauí,FLORESTA DO PIAUI,N,180,206,-7.46900,-41.79400,2482,862,1621,1273,1210
2203909,PI,Floriano,FLORIANO,N,112,3410,-6.76700,-43.02300,57690,49972,7719,27311,30380
2204006,PI,Francinópolis,FRANCINOPOLIS,N,245,254,-6.39600,-42.26200,5235,3276,1960,2558,2678
2204105,PI,Francisco Ayres,FRANCISCO AYRES,N,125,656,-6.62300,-42.69300,4477,2154,2324,2222,2256
2204154,PI,Francisco Macedo,FRANCISCO MACEDO,N,360,117,-7.33100,-40.78800,2879,1160,1720,1437,1443
2204204,PI,Francisco Santos,FRANCISCO SANTOS,N,270,570,-6.99300,-41.13800,8592,3979,4614,4383,4210
2204303,PI,Fronteiras,FRONTEIRAS,N,426,790,-7.08800,-40.61600,11117,7289,3829,5479,5639
2204352,PI,Geminiano,GEMINIANO,N,260,472,-7.15800,-41.36100,5475,1216,4260,2776,2700
2204402,PI,Gilbués,GILBUES,N,481,3495,-9.83200,-45.34400,10402,5991,4412,5214,5189
2204501,PI,Guadalupe,GUADALUPE,N,177,1020,-6.78700,-43.56900,10268,9842,427,5088,5181
2204550,PI,Guaribas,GUARIBAS,N,520,4280,-9.39800,-43.68700,4401,1275,3127,2216,2186
2204600,PI,Hugo Napoleão,HUGO NAPOLEAO,N,232,274,-5.98900,-42.55600,3771,3098,674,1840,1932
2204659,PI,Ilha Grande,ILHA GRANDE,N,10,134,-2.85800,-41.82100,8914,7445,1470,4557,4358
2204709,PI,Inhuma,INHUMA,N,387,1043,-6.66800,-41.70800,14845,7279,7567,7319,7527
2204808,PI,Ipiranga do Piauí,IPIRANGA DO PIAUI,N,424,528,-6.82800,-41.74100,9327,5747,3581,4596,4732
2204907,PI,Isaías Coelho,ISAIAS COELHO,N,260,665,-7.73800,-41.67600,8221,1866,6356,4121,4101
2205003,PI,Itainópolis,ITAINOPOLIS,N,200,811,-7.44700,-41.47800,11109,2530,8580,5545,5565
2205102,PI,Itaueira,ITAUEIRA,N,258,2535,-7.60300,-43.02600,10678,5949,4730,5385,5294
2205151,PI,Jacobina do Piauí,JACOBINA DO PIAUI,N,0,1443,-7.93500,-41.21000,5722,1025,4698,2904,2819
2205201,PI,Jaicós,JAICOS,N,280,854,-7.35900,-41.13800,18035,8508,9528,8800,9236
2205250,PI,Jardim do Mulato,JARDIM DO MULATO,N,0,461,-6.09900,-42.63000,4309,1183,3127,2183,2127
2205276,PI,Jatobá do Piauí,JATOBA DO PIAUI,N,240,664,-4.77100,-41.81800,4656,888,3769,2423,2234
2205300,PI,Jerumenha,JERUMENHA,N,145,1694,-7.08800,-43.51000,4390,2469,1922,2221,2170
2205359,PI,João Costa,JOAO COSTA,N,300,1716,-8.51100,-42.41400,2960,701,2260,1571,1390
2205409,PI,Joaquim Pires,JOAQUIM PIRES,N,7,740,-3.50800,-42.19800,13817,4256,9562,7155,6663
2205458,PI,Joca Marques,JOCA MARQUES,N,24,166,-3.47800,-42.42800,5100,1677,3424,2665,2436
2205508,PI,José de Freitas,JOSE DE FREITAS,N,138,1538,-4.75600,-42.57600,37085,21603,15483,18521,18565
2205516,PI,Juazeiro do Piauí,JUAZEIRO DO PIAUI,N,175,827,-5.17200,-41.70300,4757,1479,3279,2419,2339
2205524,PI,Júlio Borges,JULIO BORGES,N,389,1290,-10.32300,-44.23800,5373,1618,3756,2800,2574
2205532,PI,Jurema,JUREMA,N,535,1297,-9.23100,-43.12800,4517,866,3652,2354,2164
2205540,PI,Lagoinha do Piauí,LAGOINHA DO PIAUI,N,240,68,-5.83100,-42.62300,2656,1582,1075,1339,1318
2205557,PI,Lagoa Alegre,LAGOA ALEGRE,N,0,395,-4.51600,-42.62500,8008,3043,4966,4125,3884
2205565,PI,Lagoa do Barro do Piauí,LAGOA DO BARRO DO PIAUI,N,0,1301,-8.47800,-41.52700,4523,995,3529,2322,2202
2205573,PI,Lagoa de São Francisco,LAGOA DE SAO FRANCISCO,N,368,156,-4.39200,-41.60100,6422,2093,4330,3208,3215
2205581,PI,Lagoa do Piauí,LAGOA DO PIAUI,N,185,427,-5.41500,-42.64300,3863,1672,2192,1990,1874
2205599,PI,Lagoa do Sítio,LAGOA DO SITIO,N,455,790,-6.51300,-41.58400,4850,1724,3127,2463,2388
2205607,PI,Landri Sales,LANDRI SALES,N,310,1193,-7.26600,-43.93000,5281,3958,1324,2619,2663
2205706,PI,Luís Correia,LUIS CORREIA,N,10,1071,-2.87900,-41.66700,28406,12647,15760,14593,13814
2205805,PI,Luzilândia,LUZILANDIA,N,30,704,-3.45800,-42.37000,24721,13268,11454,12405,12317
2205854,PI,Madeiro,MADEIRO,N,30,177,-3.48300,-42.50400,7816,3365,4452,4044,3773
2205904,PI,Manoel Emídio,MANOEL EMIDIO,N,227,1619,-8.01300,-43.87200,5213,3315,1899,2701,2513
2205953,PI,Marcolândia,MARCOLANDIA,N,0,137,-7.44300,-40.66100,7812,6708,1105,3867,3946
2206001,PI,Marcos Parente,MARCOS PARENTE,N,274,776,-7.12100,-43.89400,4456,3846,611,2220,2237
2206050,PI,Massapê do Piauí,MASSAPE DO PIAUI,N,270,526,-7.46300,-41.12600,6220,937,5284,3153,3068
2206100,PI,Matias Olímpio,MATIAS OLIMPIO,N,69,226,-3.71600,-42.55600,10473,4796,5678,5266,5208
2206209,PI,Miguel Alves,MIGUEL ALVES,N,50,1394,-4.16600,-42.89500,32289,10711,21579,16358,15932
2206308,PI,Miguel Leão,MIGUEL LEAO,N,185,75,-5.68100,-42.73900,1253,862,392,657,597
2206357,PI,Milton Brandão,MILTON BRANDAO,N,322,1372,-4.68400,-41.42200,6769,1702,5068,3441,3329
2206407,PI,Monsenhor Gil,MONSENHOR GIL,N,116,582,-5.56400,-42.60800,10333,5310,5024,5105,5229
2206506,PI,Monsenhor Hipólito,MONSENHOR HIPOLITO,N,257,391,-6.99600,-41.03000,7391,3485,3907,3715,3677
2206605,PI,Monte Alegre do Piauí,MONTE ALEGRE DO PIAUI,N,453,2418,-9.75400,-45.30400,10345,2982,7364,5286,5060
2206654,PI,Morro Cabeça no Tempo,MORRO CABECA NO TEMPO,N,479,2211,-9.72500,-43.90100,4068,1404,2665,2061,2008
2206670,PI,Morro do Chapéu do Piauí,MORRO DO CHAPEU DO PIAUI,N,99,328,-3.74300,-42.31200,6499,2299,4201,3323,3177
2206696,PI,Murici dos Portelas,MURICI DOS PORTELAS,N,19,482,-3.31900,-42.09400,8464,1690,6775,4422,4043
2206704,PI,Nazaré do Piauí,NAZARE DO PIAUI,N,136,1312,-6.97300,-42.67200,7321,3504,3818,3668,3654
2206720,PI,Nazária,NAZARIA,N,72,0,-5.08900,-42.80200,8068,1653,6416,4085,3984
2206753,PI,Nossa Senhora de Nazaré,NOSSA SENHORA DE NAZARE,N,40,356,-4.63100,-42.17300,4556,1364,3193,2331,2226
2206803,PI,Nossa Senhora dos Remédios,NOSSA SENHORA DOS REMEDIOS,N,53,358,-3.97900,-42.62100,8206,3693,4514,4077,4130
2206902,PI,Novo Oriente do Piauí,NOVO ORIENTE DO PIAUI,N,235,500,-6.44900,-41.93900,6498,3281,3218,3235,3264
2206951,PI,Novo Santo Antônio,NOVO SANTO ANTONIO,N,180,528,-5.28800,-41.93300,3260,917,2344,1673,1588
2207009,PI,Oeiras,OEIRAS,N,166,2720,-7.02500,-42.13100,35640,21998,13643,17040,18601
2207108,PI,Olho D'Água do Piauí,OLHO D'AGUA DO PIAUI,N,235,220,-5.84100,-42.57500,2626,1065,1562,1309,1318
2207207,PI,Padre Marcos,PADRE MARCOS,N,360,319,-7.35500,-40.90400,6657,2352,4306,3230,3428
2207306,PI,Paes Landim,PAES LANDIM,N,193,350,-7.77800,-42.25600,4059,2377,1683,2049,2011
2207355,PI,Pajeú do Piauí,PAJEU DO PIAUI,N,290,1075,-7.85600,-42.82200,3363,1426,1938,1745,1619
2207405,PI,Palmeira do Piauí,PALMEIRA DO PIAUI,N,270,2021,-8.72700,-44.23600,4993,1765,3229,2571,2423
2207504,PI,Palmeirais,PALMEIRAIS,N,85,1360,-5.97800,-43.06300,13745,5343,8403,6781,6965
2207553,PI,Paquetá,PAQUETA,N,340,448,-7.10400,-41.70400,4147,557,3591,2144,2004
2207603,PI,Parnaguá,PARNAGUA,N,334,3285,-10.22700,-44.63900,10276,5340,4937,5459,4818
2207702,PI,Parnaíba,PARNAIBA,N,5,436,-2.90500,-41.77700,145705,137488,8218,69720,75986
2207751,PI,Passagem Franca do Piauí,PASSAGEM FRANCA DO PIAUI,N,140,850,-5.85800,-42.44000,4546,2483,2064,2317,2230
2207777,PI,Patos do Piauí,PATOS DO PIAUI,N,0,723,-7.66800,-41.24400,6105,1690,4416,3093,3013
2207793,PI,Pau D'Arco do Piauí,PAU D'ARCO DO PIAUI,N,0,427,-5.26100,-42.39400,3757,557,3201,1935,1823
2207801,PI,Paulistana,PAULISTANA,N,359,1752,-8.14400,-41.15000,19785,10657,9129,9567,10219
2207850,PI,Pavussu,PAVUSSU,N,300,1495,-7.96600,-43.22300,3663,1794,1870,1951,1713
2207900,PI,Pedro II,PEDRO II,N,603,1518,-4.42500,-41.45900,37496,22667,14830,18445,19052
2207934,PI,Pedro Laurentino,PEDRO LAURENTINO,N,200,835,-8.06800,-42.28500,2407,820,1588,1251,1157
2207959,PI,Nova Santa Rita,NOVA SANTA RITA,N,292,1119,-8.08700,-42.05200,4187,704,3484,2153,2035
2208007,PI,Picos,PICOS,N,206,803,-7.07700,-41.46700,73414,58306,15109,35063,38352
2208106,PI,Pimenteiras,PIMENTEIRAS,N,283,4578,-6.24500,-41.41900,11733,4796,6938,5998,5736
2208205,PI,Pio IX,PIO IX,N,495,1949,-6.83800,-40.57900,17671,5291,12381,8820,8852
2208304,PI,Piracuruca,PIRACURUCA,N,60,2381,-3.92800,-41.70900,27553,19246,8308,13628,13926
2208403,PI,Piripiri,PIRIPIRI,N,170,1409,-4.27300,-41.77700,61834,44540,17295,30138,31697
2208502,PI,Porto,PORTO,N,38,253,-3.89300,-42.71000,11897,7504,4394,6010,5888
2208551,PI,Porto Alegre do Piauí,PORTO ALEGRE DO PIAUI,N,180,1137,-6.96700,-44.18200,2559,1803,757,1325,1235
2208601,PI,Prata do Piauí,PRATA DO PIAUI,N,115,196,-5.66700,-42.20700,3085,2552,534,1552,1534
2208650,PI,Queimada Nova,QUEIMADA NOVA,N,410,1500,-8.57900,-41.41900,8553,1157,7397,4280,4274
2208700,PI,Redenção do Gurguéia,REDENCAO DO GURGUEIA,N,292,2468,-9.48700,-44.58600,8400,5335,3066,4223,4178
2208809,PI,Regeneração,REGENERACAO,N,164,1257,-6.23800,-42.68800,17556,13805,3752,8591,8966
2208858,PI,Riacho Frio,RIACHO FRIO,N,400,2222,-10.12500,-44.95300,4241,2222,2020,2221,2021
2208874,PI,Ribeira do Piauí,RIBEIRA DO PIAUI,N,200,991,-7.69100,-42.71300,4263,1030,3234,2138,2126
2208908,PI,Ribeiro Gonçalves,RIBEIRO GONCALVES,N,210,3979,-7.55800,-45.24200,6845,4450,2396,3511,3335
2209005,PI,Rio Grande do Piauí,RIO GRANDE DO PIAUI,N,310,611,-7.77500,-43.14200,6273,4094,2180,3114,3160
2209104,PI,Santa Cruz do Piauí,SANTA CRUZ DO PIAUI,N,190,612,-7.18500,-41.76800,6027,4068,1960,2974,3054
2209153,PI,Santa Cruz dos Milagres,SANTA CRUZ DOS MILAGRES,N,160,984,-5.80400,-41.95600,3794,2127,1668,1885,1910
2209203,PI,Santa Filomena,SANTA FILOMENA,N,277,5285,-9.11200,-45.92200,6096,3545,2552,3217,2880
2209302,PI,Santa Luz,SANTA LUZ,N,345,1187,-8.95400,-44.12900,5513,3109,2405,2868,2646
2209351,PI,Santana do Piauí,SANTANA DO PIAUI,N,0,141,-6.94800,-41.51900,4917,1939,2979,2400,2518
2209377,PI,Santa Rosa do Piauí,SANTA ROSA DO PIAUI,N,0,356,-6.79900,-42.28800,5149,3655,1495,2583,2567
2209401,PI,Santo Antônio de Lisboa,SANTO ANTONIO DE LISBOA,N,237,396,-6.98100,-41.23400,6007,3921,2087,2976,3032
2209450,PI,Santo Antônio dos Milagres,SANTO ANTONIO DOS MILAGRES,N,240,33,-6.04700,-42.71000,2059,807,1253,1023,1037
2209500,PI,Santo Inácio do Piauí,SANTO INACIO DO PIAUI,N,210,896,-7.43000,-41.91100,3648,2298,1351,1851,1798
2209559,PI,São Braz do Piauí,SAO BRAZ DO PIAUI,N,0,604,-8.96200,-43.00400,4313,1021,3293,2241,2073
2209609,PI,São Félix do Piauí,SAO FELIX DO PIAUI,N,175,657,-5.93300,-42.11400,3069,1641,1429,1501,1569
2209658,PI,São Francisco de Assis do Piauí,SAO FRANCISCO DE ASSIS DO PIAUI,N,415,842,-8.23800,-41.68600,5567,1430,4138,2832,2736
2209708,PI,São Francisco do Piauí,SAO FRANCISCO DO PIAUI,N,158,1341,-7.25100,-42.54300,6298,1984,4315,3190,3109
2209757,PI,São Gonçalo do Gurguéia,SAO GONCALO DO GURGUEIA,N,440,1385,-10.03000,-45.30300,2825,1219,1607,1464,1362
2209807,PI,São Gonçalo do Piauí,SAO GONCALO DO PIAUI,N,270,148,-5.99300,-42.70300,4754,3308,1447,2354,2401
2209856,PI,São João da Canabrava,SAO JOAO DA CANABRAVA,N,310,471,-6.81700,-41.34300,4445,1234,3212,2188,2258
2209872,PI,São João da Fronteira,SAO JOAO DA FRONTEIRA,N,241,765,-3.95600,-41.25800,5608,2272,3337,2806,2803
2209906,PI,São João da Serra,SAO JOAO DA SERRA,N,155,962,-5.51400,-41.89900,6157,3448,2710,3013,3145
2209955,PI,São João da Varjota,SAO JOAO DA VARJOTA,N,340,395,-6.94200,-41.89000,4651,1389,3263,2285,2367
2209971,PI,São João do Arraial,SAO JOAO DO ARRAIAL,N,110,213,-3.81900,-42.44600,7336,3702,3635,3696,3641
2210003,PI,São João do Piauí,SAO JOAO DO PIAUI,N,222,1532,-8.35800,-42.24700,19548,13471,6078,9585,9964
2210052,PI,São José do Divino,SAO JOSE DO DIVINO,N,55,319,-3.81100,-41.83300,5148,2710,2439,2653,2496
2210102,PI,São José do Peixe,SAO JOSE DO PEIXE,N,170,1339,-7.49400,-42.56400,3700,1889,1812,1886,1815
2210201,PI,São José do Piauí,SAO JOSE DO PIAUI,N,395,331,-6.87200,-41.47500,6591,1930,4662,3281,3311
2210300,PI,São Julião,SAO JULIAO,N,377,298,-7.08500,-40.82600,5675,2328,3348,2829,2847
2210359,PI,São Lourenço do Piauí,SAO LOURENCO DO PIAUI,N,0,684,-9.16900,-42.54500,4427,1113,3315,2267,2161
2210375,PI,São Luis do Piauí,SAO LUIS DO PIAUI,N,328,220,-6.82500,-41.32400,2561,814,1748,1263,1299
2210383,PI,São Miguel da Baixa Grande,SAO MIGUEL DA BAIXA GRANDE,N,160,384,-5.86400,-42.18600,2110,1358,753,1050,1061
2210391,PI,São Miguel do Fidalgo,SAO MIGUEL DO FIDALGO,N,200,803,-7.58600,-42.37000,2976,1086,1891,1547,1430
2210409,PI,São Miguel do Tapuio,SAO MIGUEL DO TAPUIO,N,285,5221,-5.50400,-41.32300,18134,6676,11459,9220,8915
2210508,PI,São Pedro do Piauí,SAO PEDRO DO PIAUI,N,264,526,-5.92900,-42.71900,13639,8196,5444,6823,6817
2210607,PI,São Raimundo Nonato,SAO RAIMUNDO NONATO,N,332,2428,-9.01500,-42.69900,32327,21265,11063,15899,16429
2210623,PI,Sebastião Barros,SEBASTIAO BARROS,N,500,1014,-10.81700,-44.83400,3560,1113,2448,1889,1672
2210631,PI,Sebastião Leal,SEBASTIAO LEAL,N,360,3111,-7.56600,-44.06400,4116,1923,2194,2152,1965
2210656,PI,Sigefredo Pacheco,SIGEFREDO PACHECO,N,230,982,-4.91800,-41.73200,9619,3177,6443,4973,4647
2210706,PI,Simões,SIMOES,N,437,1024,-7.59900,-40.81800,14180,5690,8491,7079,7102
2210805,PI,Simplício Mendes,SIMPLICIO MENDES,N,302,1399,-7.85400,-41.91000,12077,7163,4915,6091,5987
2210904,PI,Socorro do Piauí,SOCORRO DO PIAUI,N,191,693,-7.86600,-42.49100,4522,1631,2892,2301,2222
2210938,PI,Sussuapara,SUSSUAPARA,N,240,220,-7.04300,-41.38400,6229,1583,4647,3099,3131
2210953,PI,Tamboril do Piauí,TAMBORIL DO PIAUI,N,350,1579,-8.40000,-42.91400,2753,1512,1242,1444,1310
2210979,PI,Tanque do Piauí,TANQUE DO PIAUI,N,280,377,-6.60000,-42.28200,2620,1239,1382,1276,1345
2211001,PI,Teresina,TERESINA,S,72,1756,-5.08900,-42.80200,814230,767575,46656,380653,433578
2211100,PI,União,UNIAO,N,52,1173,-4.58600,-42.86400,42654,20965,21690,21404,21251
2211209,PI,Uruçuí,URUCUI,N,167,8452,-7.22900,-44.55600,20149,15505,4645,9910,10240
2211308,PI,Valença do Piauí,VALENCA DO PIAUI,N,308,1351,-6.40800,-41.74600,20326,15798,4529,9578,10749
2211357,PI,Várzea Branca,VARZEA BRANCA,N,0,435,-9.23900,-42.96400,4913,1148,3766,2498,2416
2211407,PI,Várzea Grande,VARZEA GRANDE,N,245,234,-6.54500,-42.24600,4336,2581,1756,2048,2289
2211506,PI,Vera Mendes,VERA MENDES,N,297,310,-7.60300,-41.48300,2986,966,2021,1493,1494
2211605,PI,Vila Nova do Piauí,VILA NOVA DO PIAUI,N,400,168,-7.13600,-40.94000,3076,759,2318,1577,1500
2211704,PI,Wall Ferraz,WALL FERRAZ,N,160,265,-7.23300,-41.91000,4280,1166,3115,2165,2116
2300101,CE,Abaiara,ABAIARA,N,409,180,-7.35900,-39.04600,10496,4553,5944,5211,5286
2300150,CE,Acarape,ACARAPE,N,80,155,-4.22400,-38.70800,15338,7982,7357,7571,7768
2300200,CE,Acaraú,ACARAU,N,7,843,-2.88600,-40.12000,57551,28241,29311,29104,28448
2300309,CE,Acopiara,ACOPIARA,N,317,2265,-6.09500,-39.45300,51160,25227,25934,25627,25534
2300408,CE,Aiuaba,AIUABA,N,466,2434,-6.57400,-40.12400,16203,3951,12253,8118,8086
2300507,CE,Alcântaras,ALCANTARAS,N,656,139,-3.58900,-40.54600,10771,3448,7324,5315,5457
2300606,CE,Altaneira,ALTANEIRA,N,661,73,-7.00200,-39.74100,6856,4957,1900,3317,3540
2300705,CE,Alto Santo,ALTO SANTO,N,79,1339,-5.52100,-38.27200,16359,8041,8319,8218,8142
2300754,CE,Amontada,AMONTADA,N,34,1180,-3.36100,-39.83100,39232,15948,23285,20358,18875
2300804,CE,Antonina do Norte,ANTONINA DO NORTE,N,365,260,-6.77500,-39.98900,6984,5000,1985,3344,3641
2300903,CE,Apuiarés,APUIARES,N,91,545,-3.94900,-39.43200,13925,5772,8154,7073,6853
2301000,CE,Aquiraz,AQUIRAZ,N,14,481,-3.90100,-38.39100,72628,67087,5542,37128,35501
2301109,CE,Aracati,ARACATI,N,5,1229,-4.56200,-37.77000,69159,44034,25126,34144,35016
2301208,CE,Aracoiaba,ARACOIABA,N,107,657,-4.37100,-38.81400,25391,13737,11655,12787,12605
2301257,CE,Ararendá,ARARENDA,N,380,344,-4.75300,-40.83300,10491,4906,5586,5181,5311
2301307,CE,Araripe,ARARIPE,N,605,1347,-7.21300,-40.04600,20685,12734,7952,10293,10393
2301406,CE,Aratuba,ARATUBA,N,838,143,-4.41800,-39.04500,11529,3769,7761,5824,5706
2301505,CE,Arneiroz,ARNEIROZ,N,337,1066,-6.32400,-40.16100,7650,3880,3771,3851,3800
2301604,CE,Assaré,ASSARE,N,442,1116,-6.87400,-39.87500,22445,11952,10494,11082,11364
2301703,CE,Aurora,AURORA,N,267,886,-6.94300,-38.96800,24566,11827,12740,12225,12342
2301802,CE,Baixio,BAIXIO,N,279,146,-6.73000,-38.71700,6026,3305,2722,3056,2971
2301851,CE,Banabuiú,BANABUIU,N,170,1080,-5.31000,-38.92100,17315,8753,8563,8738,8578
2301901,CE,Barbalha,BARBALHA,N,414,479,-7.30500,-39.30200,55323,38024,17300,26904,28420
2301950,CE,Barreira,BARREIRA,N,100,246,-4.28700,-38.64300,19573,8127,11447,9736,9838
2302008,CE,Barro,BARRO,N,362,710,-7.17700,-38.78200,21514,13161,8354,10628,10887
2302057,CE,Barroquinha,BARROQUINHA,N,25,383,-3.01900,-41.13700,14476,9770,4707,7321,7156
2302107,CE,Baturité,BATURITE,N,171,309,-4.32900,-38.88500,33321,24438,8884,16398,16924
2302206,CE,Beberibe,BEBERIBE,N,12,1616,-4.18000,-38.13100,49311,21614,27698,24858,24454
2302305,CE,Bela Cruz,BELA CRUZ,N,15,842,-3.05100,-40.16800,30878,12997,17882,15702,15177
2302404,CE,Boa Viagem,BOA VIAGEM,N,275,2837,-5.12800,-39.73200,52498,26606,25893,26339,26160
2302503,CE,Brejo Santo,BREJO SANTO,N,381,662,-7.49300,-38.98500,45193,28056,17138,21919,23275
2302602,CE,Camocim,CAMOCIM,N,8,1124,-2.90200,-40.84100,60158,44656,15503,29773,30386
2302701,CE,Campos Sales,CAMPOS SALES,N,566,1083,-7.07400,-40.37600,26506,19082,7425,12707,13800
2302800,CE,Canindé,CANINDE,N,148,3218,-4.35900,-39.31200,74473,46874,27600,36909,37565
2302909,CE,Capistrano,CAPISTRANO,N,159,195,-4.47000,-38.90100,17062,6213,10850,8639,8424
2303006,CE,Caridade,CARIDADE,N,144,846,-4.23200,-39.19300,20020,11524,8497,10125,9896
2303105,CE,Cariré,CARIRE,N,158,757,-3.95100,-40.47300,18347,8301,10047,9143,9205
2303204,CE,Caririaçu,CARIRIACU,N,715,624,-7.04200,-39.28400,26393,14031,12363,12812,13582
2303303,CE,Cariús,CARIUS,N,240,1062,-6.53700,-39.49700,18567,8311,10257,9334,9234
2303402,CE,Carnaubal,CARNAUBAL,N,766,365,-4.16700,-40.94300,16746,7960,8787,8347,8400
2303501,CE,Cascavel,CASCAVEL,N,40,838,-4.13100,-38.23600,66142,56155,9988,32886,33257
2303600,CE,Catarina,CATARINA,N,589,487,-6.13100,-39.87800,18745,8728,10018,9302,9444
2303659,CE,Catunda,CATUNDA,N,280,790,-4.64800,-40.20100,9952,5395,4558,5033,4920
2303709,CE,Caucaia,CAUCAIA,N,29,1228,-3.73300,-38.65600,325441,290229,35213,159597,165845
2303808,CE,Cedro,CEDRO,N,250,726,-6.60700,-39.06200,24527,15161,9367,12109,12419
2303907,CE,Chaval,CHAVAL,N,12,238,-3.03400,-41.24400,12615,9169,3447,6194,6422
2303931,CE,Choró,CHORO,N,237,816,-4.84300,-39.14100,12853,3795,9059,6586,6268
2303956,CE,Chorozinho,CHOROZINHO,N,48,278,-4.30000,-38.49700,18915,11427,7489,9600,9316
2304004,CE,Coreaú,COREAU,N,72,776,-3.53300,-40.65700,21954,14224,7731,10945,11010
2304103,CE,Crateús,CRATEUS,N,274,2985,-5.17800,-40.67800,72812,52644,20169,35511,37302
2304202,CE,Crato,CRATO,N,426,1009,-7.23400,-39.40900,121428,100919,20510,57618,63811
2304236,CE,Croatá,CROATA,N,571,700,-4.40000,-40.91100,17069,9039,8031,8328,8742
2304251,CE,Cruz,CRUZ,N,16,335,-2.91800,-40.17200,22479,9570,12910,11092,11388
2304269,CE,Deputado Irapuan Pinheiro,DEPUTADO IRAPUAN PINHEIRO,N,288,470,-5.91700,-39.26800,9095,4133,4963,4563,4533
2304277,CE,Ererê,ERERE,N,200,383,-6.03200,-38.34900,6840,3459,3382,3429,3412
2304285,CE,Eusébio,EUSEBIO,N,28,77,-3.89000,-38.45100,46033,46033,0,22953,23081
2304301,CE,Farias Brito,FARIAS BRITO,N,337,504,-6.93100,-39.56600,19007,8871,10137,9329,9679
2304350,CE,Forquilha,FORQUILHA,N,99,517,-3.79800,-40.26100,21786,15473,6314,10787,11000
2304400,CE,Fortaleza,FORTALEZA,S,21,313,-3.71700,-38.54300,2452185,2452185,0,1147868,1304318
2304459,CE,Fortim,FORTIM,N,15,280,-4.45200,-37.79700,14817,9608,5210,7456,7362
2304509,CE,Frecheirinha,FRECHEIRINHA,N,120,181,-3.76000,-40.81600,12991,7637,5355,6379,6613
2304608,CE,General Sampaio,GENERAL SAMPAIO,N,95,206,-4.05300,-39.45400,6218,3649,2570,3164,3055
2304657,CE,Graça,GRACA,N,179,282,-4.04600,-40.75300,15049,5815,9235,7439,7611
2304707,CE,Granja,GRANJA,N,10,2697,-3.12000,-40.82600,52645,25891,26755,26713,25933
2304806,CE,Granjeiro,GRANJEIRO,N,311,100,-6.88800,-39.21800,4629,1371,3259,2264,2366
2304905,CE,Groaíras,GROAIRAS,N,88,156,-3.91300,-40.38300,10228,7076,3153,5046,5183
2304954,CE,Guaiúba,GUAIUBA,N,62,267,-4.04000,-38.63700,24091,18878,5214,12140,11952
2305001,CE,Guaraciaba do Norte,GUARACIABA DO NORTE,N,902,611,-4.16700,-40.74800,37775,17403,20373,18661,19115
2305100,CE,Guaramiranga,GUARAMIRANGA,N,900,59,-4.26300,-38.93300,4164,2496,1669,2100,2065
2305209,CE,Hidrolândia,HIDROLANDIA,N,190,967,-4.40800,-40.43800,19325,11054,8272,9626,9700
2305233,CE,Horizonte,HORIZONTE,N,65,160,-4.09900,-38.49600,55187,51048,4140,27533,27655
2305266,CE,Ibaretama,IBARETAMA,N,190,877,-4.80400,-38.75300,12922,4447,8476,6667,6256
2305308,CE,Ibiapina,IBIAPINA,N,878,415,-3.92300,-40.88900,23808,10743,13066,11933,11876
2305332,CE,Ibicuitinga,IBICUITINGA,N,200,424,-4.97400,-38.63900,11335,5743,5593,5865,5471
2305357,CE,Icapuí,ICAPUI,N,5,429,-4.71300,-37.35500,18392,5787,12606,9415,8978
2305407,CE,Icó,ICO,N,153,1872,-6.40100,-38.86200,65456,30464,34993,31884,33573
2305506,CE,Iguatu,IGUATU,N,217,1029,-6.35900,-39.29900,96495,74630,21866,46424,50072
2305605,CE,Independência,INDEPENDENCIA,N,343,3219,-5.39600,-40.30900,25573,11473,14101,12741,12833
2305654,CE,Ipaporanga,IPAPORANGA,N,278,702,-4.90000,-40.75900,11343,4136,7208,5658,5686
2305704,CE,Ipaumirim,IPAUMIRIM,N,273,274,-6.79000,-38.71900,12009,7134,4876,5997,6013
2305803,CE,Ipu,IPU,N,247,630,-4.32200,-40.71100,40296,25580,14717,19955,20342
2305902,CE,Ipueiras,IPUEIRAS,N,231,1474,-4.54200,-40.71900,37862,18360,19503,18534,19329
2306009,CE,Iracema,IRACEMA,N,131,823,-5.81200,-38.30600,13722,9820,3903,6764,6959
2306108,CE,Irauçuba,IRAUCUBA,N,153,1461,-3.74600,-39.78300,22324,14344,7981,11348,10977
2306207,CE,Itaiçaba,ITAICABA,N,7,209,-4.67400,-37.82200,7316,4280,3037,3642,3675
2306256,CE,Itaitinga,ITAITINGA,N,60,151,-3.96900,-38.52800,35817,35567,251,18289,17529
2306306,CE,Itapagé,ITAPAGE,N,262,440,-3.68700,-39.58600,48350,33991,14360,23992,24359
2306405,CE,Itapipoca,ITAPIPOCA,N,108,1615,-3.49400,-39.57900,116065,66912,49154,58242,57824
2306504,CE,Itapiúna,ITAPIUNA,N,133,589,-4.56400,-38.92200,18626,8820,9807,9461,9166
2306553,CE,Itarema,ITAREMA,N,34,721,-2.92000,-39.91500,37471,15937,21535,19351,18121
2306603,CE,Itatira,ITATIRA,N,794,783,-4.52900,-39.62200,18894,9523,9372,9589,9306
2306702,CE,Jaguaretama,JAGUARETAMA,N,120,1760,-5.61300,-38.76700,17863,8469,9395,9071,8793
2306801,CE,Jaguaribara,JAGUARIBARA,N,92,668,-5.65800,-38.62000,10399,7212,3188,5278,5122
2306900,CE,Jaguaribe,JAGUARIBE,N,123,1877,-5.89100,-38.62200,34409,23268,11142,16830,17580
2307007,CE,Jaguaruana,JAGUARUANA,N,12,867,-4.83400,-37.78100,32236,19136,13101,16077,16160
2307106,CE,Jardim,JARDIM,N,648,457,-7.58200,-39.29800,26688,8994,17695,13067,13622
2307205,CE,Jati,JATI,N,434,313,-7.68600,-39.01600,7660,4489,3172,3830,3830
2307254,CE,Jijoca de Jericoacoara,JIJOCA DE JERICOACOARA,N,100,202,-2.79400,-40.51300,17002,5557,11446,8520,8483
2307304,CE,Juazeiro do Norte,JUAZEIRO DO NORTE,N,377,249,-7.21300,-39.31500,249939,240117,9823,118347,131593
2307403,CE,Jucás,JUCAS,N,246,937,-6.52500,-39.52800,23807,14151,9657,11766,12042
2307502,CE,Lavras da Mangabeira,LAVRAS DA MANGABEIRA,N,239,948,-6.75300,-38.97200,31090,18132,12959,15567,15524
2307601,CE,Limoeiro do Norte,LIMOEIRO DO NORTE,N,30,752,-5.14600,-38.09800,56264,32482,23783,27575,28690
2307635,CE,Madalena,MADALENA,N,299,1035,-4.85700,-39.57700,18088,8916,9173,9084,9005
2307650,CE,Maracanaú,MARACANAU,N,40,106,-3.87700,-38.62600,209057,207615,1443,102083,106975
2307700,CE,Maranguape,MARANGUAPE,N,80,591,-3.89000,-38.68600,113561,86307,27255,56622,56940
2307809,CE,Marco,MARCO,N,20,574,-3.12400,-40.14700,24703,15435,9269,12599,12105
2307908,CE,Martinópole,MARTINOPOLE,N,85,299,-3.22600,-40.69700,10214,8007,2208,5100,5115
2308005,CE,Massapê,MASSAPE,N,83,572,-3.52300,-40.34300,35191,23983,11209,17445,17747
2308104,CE,Mauriti,MAURITI,N,373,1112,-7.38900,-38.77400,44240,23284,20957,22090,22151
2308203,CE,Meruoca,MERUOCA,N,657,145,-3.54200,-40.45500,13693,7421,6273,6874,6820
2308302,CE,Milagres,MILAGRES,N,334,547,-7.31300,-38.94600,28316,13555,14762,13926,14391
2308351,CE,Milhã,MILHA,N,215,502,-5.67500,-39.19400,13086,5969,7118,6529,6558
2308377,CE,Miraíma,MIRAIMA,N,79,700,-3.56900,-39.97000,12800,6847,5954,6608,6193
2308401,CE,Missão Velha,MISSAO VELHA,N,360,651,-7.25000,-39.14300,34274,15420,18855,16915,17360
2308500,CE,Mombaça,MOMBACA,N,244,2119,-5.74300,-39.62800,42690,18818,23873,21252,21439
2308609,CE,Monsenhor Tabosa,MONSENHOR TABOSA,N,687,886,-4.78900,-40.06300,16705,9362,7344,8296,8410
2308708,CE,Morada Nova,MORADA NOVA,N,52,2779,-5.10700,-38.37300,62065,35402,26664,31145,30921
2308807,CE,Moraújo,MORAUJO,N,66,416,-3.46700,-40.68100,8070,3605,4466,4070,4001
2308906,CE,Morrinhos,MORRINHOS,N,35,409,-3.22900,-40.12500,20700,9612,11089,10440,10261
2309003,CE,Mucambo,MUCAMBO,N,170,191,-3.90900,-40.74700,14102,9067,5036,6699,7404
2309102,CE,Mulungu,MULUNGU,N,801,135,-4.30600,-38.99600,11485,4198,7288,5843,5643
2309201,CE,Nova Olinda,NOVA OLINDA,N,446,284,-7.09200,-39.68100,14256,9696,4561,7020,7237
2309300,CE,Nova Russas,NOVA RUSSAS,N,240,743,-4.70700,-40.56300,30965,23246,7720,15025,15941
2309409,CE,Novo Oriente,NOVO ORIENTE,N,347,949,-5.53400,-40.77400,27453,14229,13225,13549,13905
2309458,CE,Ocara,OCARA,N,100,765,-4.49100,-38.59700,24007,7606,16402,12318,11690
2309508,CE,Orós,OROS,N,184,576,-6.24400,-38.91400,21389,16023,5367,10421,10969
2309607,CE,Pacajus,PACAJUS,N,60,254,-4.17300,-38.46100,61838,50677,11162,30369,31470
2309706,CE,Pacatuba,PACATUBA,N,65,132,-3.98400,-38.62000,72299,62098,10202,35601,36699
2309805,CE,Pacoti,PACOTI,N,736,112,-4.22500,-38.92300,11607,4745,6863,5850,5758
2309904,CE,Pacujá,PACUJA,N,142,76,-3.98800,-40.69700,5986,3724,2263,2903,3084
2310001,CE,Palhano,PALHANO,N,14,443,-4.74500,-37.95900,8866,4515,4352,4471,4396
2310100,CE,Palmácia,PALMACIA,N,425,118,-4.15000,-38.84600,12005,4957,7049,6003,6003
2310209,CE,Paracuru,PARACURU,N,19,303,-3.41000,-39.03100,31636,20589,11048,15853,15784
2310258,CE,Paraipaba,PARAIPABA,N,31,301,-3.43900,-39.14800,30041,13435,16607,15291,14751
2310308,CE,Parambu,PARAMBU,N,478,2303,-6.21100,-40.69400,31309,14105,17205,15264,16046
2310407,CE,Paramoti,PARAMOTI,N,90,483,-4.09700,-39.23900,11308,5540,5769,5814,5495
2310506,CE,Pedra Branca,PEDRA BRANCA,N,500,1303,-5.45400,-39.71700,41890,24510,17381,20698,21193
2310605,CE,Penaforte,PENAFORTE,N,509,190,-7.82900,-39.07700,8226,6400,1827,4044,4183
2310704,CE,Pentecoste,PENTECOSTE,N,45,1378,-3.79300,-39.27000,35400,21396,14005,17899,17502
2310803,CE,Pereiro,PEREIRO,N,560,433,-6.04500,-38.46100,15757,5434,10324,7762,7996
2310852,CE,Pindoretama,PINDORETAMA,N,40,73,-4.02800,-38.30600,18683,11281,7403,9340,9344
2310902,CE,Piquet Carneiro,PIQUET CARNEIRO,N,251,588,-5.80400,-39.41800,15467,7440,8028,7791,7677
2310951,CE,Pires Ferreira,PIRES FERREIRA,N,196,242,-4.24700,-40.64500,10216,3354,6863,5139,5078
2311009,CE,Poranga,PORANGA,N,713,1309,-4.74500,-40.92600,12001,7799,4203,5975,6027
2311108,CE,Porteiras,PORTEIRAS,N,523,218,-7.53500,-39.11800,15061,6189,8873,7367,7695
2311207,CE,Potengi,POTENGI,N,560,339,-7.09100,-40.02700,10276,5715,4562,4987,5290
2311231,CE,Potiretama,POTIRETAMA,N,150,409,-5.66800,-38.25100,6126,2703,3424,3160,2967
2311264,CE,Quiterianópolis,QUITERIANOPOLIS,N,430,1041,-5.84300,-40.70100,19921,6305,13617,9853,10069
2311306,CE,Quixadá,QUIXADA,N,189,2020,-4.97100,-39.01500,80604,57487,23118,39771,40834
2311355,CE,Quixelô,QUIXELO,N,195,560,-6.25400,-39.20200,15000,4929,10071,7550,7451
2311405,CE,Quixeramobim,QUIXERAMOBIM,N,191,3276,-5.19900,-39.29300,71887,43427,28461,35728,36160
2311504,CE,Quixeré,QUIXERE,N,25,617,-5.07400,-37.98900,19412,11931,7482,9706,9706
2311603,CE,Redenção,REDENCAO,N,88,226,-4.22600,-38.73100,26415,15134,11282,13123,13293
2311702,CE,Reriutaba,RERIUTABA,N,145,383,-4.14200,-40.58200,19455,10590,8866,9681,9775
2311801,CE,Russas,RUSSAS,N,20,1588,-4.94000,-37.97600,69833,44952,24882,34407,35427
2311900,CE,Saboeiro,SABOEIRO,N,291,1383,-6.54200,-39.90700,15752,8456,7297,7763,7990
2311959,CE,Salitre,SALITRE,N,680,900,-7.28500,-40.45700,15453,6264,9190,7770,7684
2312007,CE,Santana do Acaraú,SANTANA DO ACARAU,N,45,969,-3.46100,-40.21200,29946,15372,14575,15171,14776
2312106,CE,Santana do Cariri,SANTANA DO CARIRI,N,500,769,-7.18800,-39.73700,17170,8822,8349,8640,8531
